stop_id,stop_code,platform_code,stop_name,stop_desc,stop_lat,stop_lon,zone_id,stop_url,location_type,parent_station,stop_timezone,position,direction,wheelchair_boarding,tts_stop_name
31001,31001,,Cherrywood Lane at Ivy Lane,,39.0098781277374,-76.8984646779109,,,0,,America/New_York,,,0,
31002,31002,,Cherrywood Lane at Greenbelt Federal Courthouse,,39.010844,-76.894832,,,0,,America/New_York,,,0,
31003,31003,,Crescent Road at Ridge Road,,39.005616,-76.890935,,,0,,America/New_York,,,0,
31004,31004,,Crescent Road at Lastner Lane,,39.005389,-76.889073,,,0,,America/New_York,,,0,
31005,31005,,Greenhill Road at Crescent Road,,39.0063684380867,-76.8832046663882,,,0,,America/New_York,,,0,
31006,31006,,Greenhill Road at Greenway Place,,39.008168,-76.882174,,,0,,America/New_York,,,0,
31007,31007,,Hillside Road at #19 Court Hillside,,39.009077,-76.877656,,,0,,America/New_York,,,0,
31008,31008,,Hillside Road at Laurel Hill Road,,39.008762,-76.875714,,,0,,America/New_York,,,0,
31009,31009,,Hillside Road at Northway,,39.007047,-76.875251,,,0,,America/New_York,,,0,
31010,31010,,Hillside Road at Woodland Way,,39.006543,-76.875393,,,0,,America/New_York,,,0,
31011,31011,,Hillside Road at Crescent Road,,39.004737,-76.87563,,,0,,America/New_York,,,0,
31012,31012,,Crescent Road at Parkway,,39.003115,-76.874341,,,0,,America/New_York,,,0,
31013,31013,,Crescent Road at Gardenway,,39.001221,-76.87521,,,0,,America/New_York,,,0,
31014,31014,,Southway at Crescent Road,,39.00005,-76.877222,,,0,,America/New_York,,,0,
31015,31015,,Southway at Ridge Road,,38.997853,-76.878319,,,0,,America/New_York,,,0,
31016,31016,,Southway at #10 Court Southway,,38.996997,-76.879365,,,0,,America/New_York,,,0,
31017,31017,,Greenbrook Drive at Hanover Parkway,,38.9880670468468,-76.8774422674365,,,0,,America/New_York,,,0,
31018,31018,,Greenbrook Drive at Sunset Place,,38.988177,-76.874074,,,0,,America/New_York,,,0,
31019,31019,,Greenbrook Drive at Chartwell Place,,38.988155,-76.871318,,,0,,America/New_York,,,0,
31020,31020,,Greenbrook Drive at Ora Glen Drive,,38.989989,-76.870463,,,0,,America/New_York,,,0,
31021,31021,,Ora Glen Drive at Morrison Drive,,38.989187,-76.867309,,,0,,America/New_York,,,0,
31022,31022,,Ora Glen Drive at Mandan Road,,38.988785,-76.864599,,,0,,America/New_York,,,0,
31023,31023,,Mandan Road at Canning Terrace,,38.990411,-76.864322,,,0,,America/New_York,,,0,
31024,31024,,Mandan Road at Greenbelt Road,,38.992704,-76.864292,,,0,,America/New_York,,,0,
31025,31025,,Mandan Road at Mandan Road Court,,38.994381,-76.864953,,,0,,America/New_York,,,0,
31026,31026,,Mandan Road at 7648 Mandan Road,,38.995428,-76.86507,,,0,,America/New_York,,,0,
31027,31027,,Mandan Road at Hanover Parkway,,38.997678,-76.86539,,,0,,America/New_York,,,0,
31028,31028,,Hanover Parkway at 7800 Hanover Parkway,,38.997048,-76.868591,,,0,,America/New_York,,,0,
31029,31029,,Hanover Parkway at 7718 Hanover Parkway,,38.99653,-76.870542,,,0,,America/New_York,,,0,
31030,31030,,Hanover Parkway at Greenbelt Road,,38.994831,-76.873968,,,0,,America/New_York,,,0,
31031,31031,,Southway at #11 Court,,38.996895,-76.879066,,,0,,America/New_York,,,0,
31032,31032,,Southway at #7 Court,,38.997839,-76.878044,,,0,,America/New_York,,,0,
31033,31033,,Southway at Crescent Road,,39.000141,-76.877004,,,0,,America/New_York,,,0,
31034,31034,,Crescent Road at Gardenway,,39.001388,-76.874802,,,0,,America/New_York,,,0,
31035,31035,,Crescent Road at #58 Court,,39.003246,-76.874222,,,0,,America/New_York,,,0,
31036,31036,,Hillside Road at Crescent Road,,39.004814,-76.875513,,,0,,America/New_York,,,0,
31037,31037,,Hillside Road at Hillside Court #6,,39.006099,-76.875323,,,0,,America/New_York,,,0,
31038,31038,,Hillside Road at Northway,,39.007463,-76.875333,,,0,,America/New_York,,,0,
31039,31039,,Hillside Road at Laurel Hill Road,,39.008905,-76.875769,,,0,,America/New_York,,,0,
31040,31040,,Hillside Road at Research Road,,39.009168,-76.878109,,,0,,America/New_York,,,0,
31041,31041,,Greenhill Road at Orange Court,,39.0082007158337,-76.8823083252013,,,0,,America/New_York,,,0,
31042,31042,,Greenhill Road at Crescent Road,,39.006359,-76.883042,,,0,,America/New_York,,,0,
31043,31043,,Crescent Road at Lastner Lane,,39.005581,-76.888442,,,0,,America/New_York,,,0,
31044,31044,,Crescent Road at Ridge Road,,39.005836,-76.891058,,,0,,America/New_York,,,0,
31045,31045,,Cherrywood Lane at Greenbelt Federal Courthouse,,39.010417,-76.89533,,,0,,America/New_York,,,0,
31046,31046,,Cherrywood Lane at Ivy Lane,,39.010075,-76.898412,,,0,,America/New_York,,,0,
31047,31047,,Chillum Road at 2440 Chillum Road,,38.9521663079706,-76.9691741342523,,,0,,America/New_York,,,0,
31048,31048,,Chillum Road at 21st Place,,38.953531,-76.973657,,,0,,America/New_York,,,0,
31049,31049,,Chillum Road at Longford Drive,,38.954371,-76.978997,,,0,,America/New_York,,,0,
31050,31050,,Chillum Road at 18th Avenue,,38.954943,-76.980515,,,0,,America/New_York,,,0,
31051,31051,,16th Avenue at Cypress Creek Drive,,38.956404,-76.980775,,,0,,America/New_York,,,0,
31052,31052,,Ray Road at Cypress Creek Drive,,38.958539,-76.978069,,,0,,America/New_York,,,0,
31053,31053,,Ray Road at Madison Street,,38.96088553,-76.97890044,,,0,,America/New_York,,,0,
31054,31054,,Ray Road at Balfour Drive,,38.962717,-76.981136,,,0,,America/New_York,,,0,
31055,31055,,Sargent Road at Rollingcrest Commons,,38.962714,-76.984853,,,0,,America/New_York,,,0,
31056,31056,,Madison Street at Madison Court,,38.960449,-76.983769,,,0,,America/New_York,,,0,
31057,31057,,Madison Street at Timber Creek Drive,,38.959965,-76.981452,,,0,,America/New_York,,,0,
31058,31058,,Madison Street at Ray Road,,38.960887,-76.979295,,,0,,America/New_York,,,0,
31059,31059,,Ray Road at Cypress Creek Drive (Inbound),,38.95855,-76.978222,,,0,,America/New_York,,,0,
31060,31060,,16th Avenue at Cypress Creek Drive (Inbound),,38.956546,-76.980777,,,0,,America/New_York,,,0,
31061,31061,,Chillum Road at 18th Avenue (Inbound),,38.955185,-76.98061,,,0,,America/New_York,,,0,
31062,31062,,Chillum Road at Longford Drive,,38.954368,-76.979423,,,0,,America/New_York,,,0,
31063,31063,,Chillum Road at 21st Place,,38.953511,-76.97454,,,0,,America/New_York,,,0,
31064,31064,,Chillum Road at Shoppers Food Entrance,,38.951967,-76.969219,,,0,,America/New_York,,,0,
31065,31065,,Chillum Rd at Queens Chapel Rd,,38.950941,-76.965846,,,0,,America/New_York,,,0,
31066,31066,,Chillum Rd at Buchanan St,,38.949963,-76.96287,,,0,,America/New_York,,,0,
31067,31067,,Arundel Rd & 34th St,,38.94798321,-76.96302078,,,0,,America/New_York,,,0,
31068,31068,,Arundel Rd & 29th St,,38.946413,-76.967924,,,0,,America/New_York,,,0,
31069,31069,,Arundel Rd & 25th Ave,,38.945697,-76.969922,,,0,,America/New_York,,,0,
31070,31070,,28th Pl & Russell Ave,,38.94448,-76.971112,,,0,,America/New_York,,,0,
31071,31071,,28th Pl & Upshur St,,38.9433697,-76.96922078,,,0,,America/New_York,,,0,
31072,31072,,Upshur St at 28th St,,38.94314,-76.968583,,,0,,America/New_York,,,0,
31073,31073,,Upshur St at 30th St,,38.9434692896049,-76.9662265671104,,,0,,America/New_York,,,0,
31074,31074,,Rainier Ave at Upshur St,,38.943181,-76.964931,,,0,,America/New_York,,,0,
31075,31075,,Rainier Ave at Taylor St,,38.941643,-76.962939,,,0,,America/New_York,,,0,
31076,31076,,Rainier Ave at 34th St,,38.940698,-76.961701,,,0,,America/New_York,,,0,
31078,31078,,34th St & Bunker Hill Rd,,38.938041,-76.960807,,,0,,America/New_York,,,0,
31079,31079,,Queens Chapel Road at Chillum Road,,38.9519838330534,-76.9668495096771,,,0,,America/New_York,,,0,
31081,31081,,Rhode Island Ave at 34th St,,38.936736,-76.959914,,,0,,America/New_York,,,0,
31082,31082,,Volta Avenue at Rhode Island Avenue,,38.94239,-76.952605,,,0,,America/New_York,,,0,
31083,31083,,Gwendolyn Britt Center,,38.944641,-76.951665,,,0,,America/New_York,,,0,
31084,31084,,Volta Avenue at Upshur Street,,38.9435405230807,-76.9547222524501,,,0,,America/New_York,,,0,
31085,31085,,Volta Avenue at 39th Place,,38.9435193265945,-76.9544916191189,,,0,,America/New_York,,,0,
31086,31086,,Ager Road at Lancer Drive,,38.958255,-76.967392,,,0,,America/New_York,,,0,
31087,31087,,Ager Road at 29th Avenue,,38.960135,-76.968381,,,0,,America/New_York,,,0,
31088,31088,,Ager Road at Nicholson Street,,38.961792,-76.969628,,,0,,America/New_York,,,0,
31089,31089,,Ager Road at Oglethorpe Street,,38.964532,-76.972054,,,0,,America/New_York,,,0,
31090,31090,,Ager Road at Peabody Street,,38.96599,-76.973699,,,0,,America/New_York,,,0,
31091,31091,,Ager Road at 23rd Avenue,,38.967015,-76.974777,,,0,,America/New_York,,,0,
31092,31092,,East-West Highway at Toledo Terrace,,38.966905,-76.962622,,,0,,America/New_York,,,0,
31093,31093,,East-West Highway at Metro Center Drive,,38.967003,-76.958176,,,0,,America/New_York,,,0,
31094,31094,,42nd Avenue at Queensbury Road,,38.96346724,-76.94630523,,,0,,America/New_York,,,0,
31095,31095,,42nd Avenue at Oliver Street,,38.961609,-76.946445,,,0,,America/New_York,,,0,
31096,31096,,42nd Avenue at Oglethorpe Street,,38.959583,-76.946574,,,0,,America/New_York,,,0,
31097,31097,,42nd Avenue at Madison Street,,38.957959,-76.946737,,,0,,America/New_York,,,0,
31098,31098,,42nd Avenue at Jefferson Street,,38.955179,-76.945716,,,0,,America/New_York,,,0,
31099,31099,,Farragut Street at 42nd Place,,38.951693,-76.944585,,,0,,America/New_York,,,0,
31100,31100,,Farragut Street at Rhode Island Avenue,,38.951584,-76.941457,,,0,,America/New_York,,,0,
31102,31102,,40th Pl & Crittenden St,,38.948747,-76.947038,,,0,,America/New_York,,,0,
31103,31103,,40th Pl & Gallatin St,,38.951757,-76.948535,,,0,,America/New_York,,,0,
31105,31105,,Volta Avenue at Rhode Island Avenue,,38.9424587390538,-76.9525889510826,,,0,,America/New_York,,,0,
31106,31106,,Hamilton Street at 36th Avenue,,38.9543616377311,-76.9587159603831,,,0,,America/New_York,,,0,
31108,31108,,Hamilton Street at 38th Avenue,,38.9534535410143,-76.9551431514821,,,0,,America/New_York,,,0,
31110,31110,,Arena Drive/ Medical Center Drive at Largo Hospital,,38.90446737,-76.84496504,,,0,,America/New_York,,,0,
31111,31111,,Hospital Drive at Firehorn Drive,,38.7455,-76.87732,,,0,,America/New_York,,,0,
31112,31112,,Queensbury Road at 41st Avenue,,38.963849,-76.947959,,,0,,America/New_York,,,0,
31113,31113,,Gallatin Street at Church Place,,38.952658,-76.941878,,,0,,America/New_York,,,0,
31114,31114,,Gallatin Street at 43rd Avenue,,38.952666,-76.94272,,,0,,America/New_York,,,0,
31115,31115,,Gallatin Street at 42nd Avenue,,38.95274,-76.944883,,,0,,America/New_York,,,0,
31116,31116,,42nd Avenue at Jefferson Street,,38.955228,-76.945608,,,0,,America/New_York,,,0,
31117,31117,,42nd Avenue at Nicholson Street,,38.958378,-76.946593,,,0,,America/New_York,,,0,
31118,31118,,42nd Avenue at Oglethorpe Street,,38.959617,-76.946452,,,0,,America/New_York,,,0,
31119,31119,,42nd Avenue at Oliver Street,,38.961116505823,-76.9463278666281,,,0,,America/New_York,,,0,
31120,31120,,42nd Avenue at Queensbury Road,,38.963403,-76.946164,,,0,,America/New_York,,,0,
31121,31121,,Ager Road at Roanoke Street,,38.966839,-76.974981,,,0,,America/New_York,,,0,
31122,31122,,Ager Road at Powhatan Road,,38.965441,-76.973456,,,0,,America/New_York,,,0,
31123,31123,,Ager Road at Oglethorpe Street,,38.963902,-76.971767,,,0,,America/New_York,,,0,
31124,31124,,Ager Road at Nicholson Street,,38.962148,-76.9695,,,0,,America/New_York,,,0,
31125,31125,,Ager Road at Kirkwood Place,,38.959993,-76.968752,,,0,,America/New_York,,,0,
31126,31126,,Ager Road at Lancer Drive,,38.958756,-76.967958,,,0,,America/New_York,,,0,
31127,31127,,Queensbury Road at Opp. Cresent Cities Center,,38.9631,-76.940214,,,0,,America/New_York,,,0,
31129,31129,,Riverdale Road at 49th Avenue,,38.96126,-76.930935,,,0,,America/New_York,,,0,
31130,31130,,Riverdale Road at Calvert Park Apartments,,38.960686,-76.926792,,,0,,America/New_York,,,0,
31131,31131,,Riverdale Road at Tanglewood Drive,,38.960122,-76.924981,,,0,,America/New_York,,,0,
31132,31132,,54th Avenue at Riverdale Road,,38.959218,-76.923034,,,0,,America/New_York,,,0,
31133,31133,,54th Avenue at 5600 54th Avenue,,38.958023,-76.923875,,,0,,America/New_York,,,0,
31136,31136,,54th Avenue at Jefferson Street,,38.957253,-76.924312,,,0,,America/New_York,,,0,
31137,31137,,Jefferson Street at Kenilworth Avenue,,38.956736,-76.923047,,,0,,America/New_York,,,0,
31138,31138,,Kenilworth Avenue at Nicholson Street,,38.957897,-76.921125,,,0,,America/New_York,,,0,
31139,31139,,Riverdale Road at 57th Avenue,,38.959217,-76.918522,,,0,,America/New_York,,,0,
31140,31140,,Riverdale Road at 5800 Riverdale Road,,38.96004,-76.914884,,,0,,America/New_York,,,0,
31142,31142,,Riverdale Road at 63rd Avenue,,38.960933,-76.910078,,,0,,America/New_York,,,0,
31143,31143,,Riverdale Road at Eastpine Drive,,38.9610003,-76.90669415,,,0,,America/New_York,,,0,
31144,31144,,Riverdale Road at 67th Avenue,,38.961333,-76.902906,,,0,,America/New_York,,,0,
31145,31145,,Riverdale Road at 67th Place,,38.962656,-76.901134,,,0,,America/New_York,,,0,
31146,31146,,Auburn Avenue at Riverdale Road,,38.964984,-76.896509,,,0,,America/New_York,,,0,
31147,31147,,Auburn Avenue at Opp. First Street,,38.966346,-76.896068,,,0,,America/New_York,,,0,
31148,31148,,Auburn Avenue at Second Street,,38.967362,-76.895457,,,0,,America/New_York,,,0,
31149,31149,,Auburn Avenue at Third Street,,38.968817,-76.894817,,,0,,America/New_York,,,0,
31150,31150,,Auburn Avenue at Chestnut Avenue,,38.971489,-76.893665,,,0,,America/New_York,,,0,
31151,31151,,Good Luck Road at Oakland Avenue,,38.972451,-76.895377,,,0,,America/New_York,,,0,
31152,31152,,Good Luck Road at Crest Park Drive,,38.9719590944655,-76.904145145555,,,0,,America/New_York,,,0,
31153,31153,,Good Luck Road at Opp. Sora Lane,,38.972048,-76.907307,,,0,,America/New_York,,,0,
31154,31154,,Good Luck Road at Kenilworth Avenue,,38.972086,-76.912911,,,0,,America/New_York,,,0,
31155,31155,,Kenilworth Avenue at Opp. Sarvis Avenue,,38.969957,-76.916419,,,0,,America/New_York,,,0,
31156,31156,,Kenilworth Avenue at Opp. Tennyson Street,,38.967653,-76.917839,,,0,,America/New_York,,,0,
31157,31157,,River Road at Kenilworth Avenue,,38.967533,-76.918894,,,0,,America/New_York,,,0,
31158,31158,,River Road at Rivertech Court,,38.969769,-76.926571,,,0,,America/New_York,,,0,
31159,31159,,River Road at Opp. American Institute Of Physics,,38.972236,-76.928322,,,0,,America/New_York,,,0,
31160,31160,,River Road at American Institute Of Physics,,38.972083,-76.928561,,,0,,America/New_York,,,0,
31161,31161,,River Road at Rivertech Court,,38.970017,-76.927233,,,0,,America/New_York,,,0,
31162,31162,,River Road at Kenilworth Avenue,,38.967553,-76.91995,,,0,,America/New_York,,,0,
31163,31163,,Kenilworth Avenue at Tennyson Street,,38.967847,-76.918002,,,0,,America/New_York,,,0,
31164,31164,,Kenilworth Avenue at Sarvis Avenue,,38.969286,-76.917229,,,0,,America/New_York,,,0,
31165,31165,,Good Luck Road at Kenilworth Avenue,,38.971829,-76.912147,,,0,,America/New_York,,,0,
31166,31166,,Good Luck Road at Sora Lane,,38.971817,-76.909268,,,0,,America/New_York,,,0,
31167,31167,,Good Luck Road at Silk Tree Drive,,38.9718500066013,-76.9062639944067,,,0,,America/New_York,,,0,
31168,31168,,Good Luck Road at Parkdale High School,,38.9719083883077,-76.9027502802021,,,0,,America/New_York,,,0,
31169,31169,,Good Luck Road at Oakland Avenue,,38.972344,-76.895636,,,0,,America/New_York,,,0,
31170,31170,,Auburn Avenue at Opp. Chestnut Avenue,,38.971486,-76.893838,,,0,,America/New_York,,,0,
31171,31171,,Auburn Avenue at Third Street,,38.969152,-76.894847,,,0,,America/New_York,,,0,
31172,31172,,Auburn Avenue at Second Street,,38.967798,-76.895436,,,0,,America/New_York,,,0,
31173,31173,,Auburn Avenue at First Street,,38.96603,-76.896034,,,0,,America/New_York,,,0,
31174,31174,,Auburn Avenue at Riverdale Road,,38.965058,-76.896649,,,0,,America/New_York,,,0,
31175,31175,,Riverdale Road at Fernwood Terrance,,38.962704,-76.901351,,,0,,America/New_York,,,0,
31176,31176,,Riverdale Road at 67th Court,,38.961867,-76.902358,,,0,,America/New_York,,,0,
31177,31177,,Riverdale Road at 64th Avenue,,38.961233,-76.907372,,,0,,America/New_York,,,0,
31178,31178,,Riverdale Road at 62nd Place,,38.961069,-76.911067,,,0,,America/New_York,,,0,
31179,31179,,Riverdale Road at 61st Place,,38.960496,-76.912978,,,0,,America/New_York,,,0,
31180,31180,,Riverdale Road at 60th Place,,38.96025,-76.915086,,,0,,America/New_York,,,0,
31181,31181,,Riverdale Road at 57th Avenue,,38.95928,-76.918715,,,0,,America/New_York,,,0,
31182,31182,,Kenilworth Avenue at Opp. Nicholson Street,,38.95787,-76.920773,,,0,,America/New_York,,,0,
31183,31183,,Jefferson Street at Kenilworth Avenue,,38.95663,-76.923074,,,0,,America/New_York,,,0,
31184,31184,,Jefferson Street at 54th Avenue,,38.957035,-76.924139,,,0,,America/New_York,,,0,
31185,31185,,54th Avenue at Opp. 5600 54th Avenue,,38.9580259851322,-76.9237249112661,,,0,,America/New_York,,,0,
31186,31186,,54th Avenue at Riverdale Road,,38.959227,-76.923183,,,0,,America/New_York,,,0,
31187,31187,,Riverdale Road at Tanglewood Drive,,38.960281,-76.925048,,,0,,America/New_York,,,0,
31188,31188,,Riverdale Road at Opp. Calvert Park Apartments,,38.960799,-76.926763,,,0,,America/New_York,,,0,
31189,31189,,Riverdale Road at Taylor Road,,38.961175,-76.929378,,,0,,America/New_York,,,0,
31190,31190,,Queensbury Road at Cresent Cities Center,,38.963245,-76.940429,,,0,,America/New_York,,,0,
31191,31191,,Queensbury Road at 44th Avenue,,38.9634090996477,-76.9420512951435,,,0,,America/New_York,,,0,
31192,31192,,Queensbury Road at 42nd Place,,38.9637249276503,-76.9451000982486,,,0,,America/New_York,,,0,
31194,31194,,Cipriano Rd & Brae Brooke Dr,,38.986566,-76.854133,,,0,,America/New_York,,,0,
31196,31196,,Wmap Rd at Icesat Rd,,38.99299051,-76.84660689,,,0,,America/New_York,,,0,
31199,31199,,Greenbelt Station Pkwy & S. Center Dr,,39.00195188,-76.91655993,,,0,,America/New_York,,,0,
31200,31200,,Greenbelt Station Pkwy & Streambank Ln,,39.00073875,-76.91757381,,,0,,America/New_York,,,0,
31201,31201,,Goddard Space Flight Center Main Gate,,38.99079337,-76.85266668,,,0,,America/New_York,,,0,
31203,31203,,Goddard Space Flight Center Visitors Center,,38.992828,-76.846389,,,0,,America/New_York,,,0,
31218,31218,,85th Avenue at Hiltop Apartments,,38.9538979157765,-76.8687869366511,,,0,,America/New_York,,,0,
31219,31219,,85th Avenue at Carrollon Manor,,38.9560081487768,-76.8682760716283,,,0,,America/New_York,,,0,
31220,31220,,Annapolis Road at Riverdale Road,,38.95701,-76.870898,,,0,,America/New_York,,,0,
31221,31221,,Riverdale Road at Carrollton Mall Entrance,,38.957658,-76.874189,,,0,,America/New_York,,,0,
31222,31222,,Riverdale Road at Opp. Herritage Square Apt. Entrance,,38.958797,-76.875335,,,0,,America/New_York,,,0,
31223,31223,,Riverdale Road at Mahoney Drive,,38.959697,-76.87743,,,0,,America/New_York,,,0,
31224,31224,,Riverdale Road at 7600 Riverdale Road,,38.960193,-76.879588,,,0,,America/New_York,,,0,
31225,31225,,Lamont Drive at Powhatan Street,,38.961769,-76.881793,,,0,,America/New_York,,,0,
31226,31226,,Lamont Drive at Westbrook Drive,,38.965225,-76.8803,,,0,,America/New_York,,,0,
31227,31227,,Lamont Drive at Larchwood Street,,38.967847,-76.880079,,,0,,America/New_York,,,0,
31228,31228,,Lamont Drive at Carrollton Parkway,,38.969344,-76.880161,,,0,,America/New_York,,,0,
31229,31229,,Lamont Drive at Quentin Street,,38.971873,-76.88072,,,0,,America/New_York,,,0,
31230,31230,,Lamont Drive at Fairbanks Street,,38.973647,-76.881042,,,0,,America/New_York,,,0,
31231,31231,,Lamont Drive at Donoghue Drive,,38.974646,-76.882132,,,0,,America/New_York,,,0,
31232,31232,,Good Luck Road at Terra Alta Drive,,38.976142,-76.880353,,,0,,America/New_York,,,0,
31233,31233,,Good Luck Road at Cathedral Avenue,,38.9766965627959,-76.8782532847207,,,0,,America/New_York,,,0,
31234,31234,,Good Luck Road at Dawnwood Drive,,38.9797480742942,-76.8692979799347,,,0,,America/New_York,,,0,
31235,31235,,Doctors Community Hospital at Bus Shelter,,38.981623,-76.865471,,,0,,America/New_York,,,0,
31236,31236,,Hanover Parkway at Green Manor Court,,38.981362,-76.867418,,,0,,America/New_York,,,0,
31237,31237,,Hanover Parkway at Spring Manor Drive,,38.982691,-76.868613,,,0,,America/New_York,,,0,
31238,31238,,Hanover Parkway at Megan Lane,,38.983459,-76.870279,,,0,,America/New_York,,,0,
31239,31239,,Hanover Parkway at Village Park Drive,,38.983639,-76.872059,,,0,,America/New_York,,,0,
31240,31240,,Hanover Parkway at Opp. Hunting Ridge Club Apartments,,38.986292,-76.876364,,,0,,America/New_York,,,0,
31241,31241,,Hanover Parkway at Greenbrook Drive,,38.987709,-76.877611,,,0,,America/New_York,,,0,
31243,31243,,Greenbelt Road at Lakecrest Drive,,38.9955444395956,-76.8866122394726,,,0,,America/New_York,,,0,
31248,31248,,Greenbelt Road at Walker Drive,,38.9963085527419,-76.8946243249458,,,0,,America/New_York,,,0,
31249,31249,,Pontiac Street at Edmonston Road,,38.99078,-76.906547,,,0,,America/New_York,,,0,
31250,31250,,Pontiac Street at 63rd Avenue,,38.991196,-76.908188,,,0,,America/New_York,,,0,
31251,31251,,Pontiac Street at 60th Avenue,,38.991782,-76.910805,,,0,,America/New_York,,,0,
31252,31252,,Pontiac Street at Cunningham Drive,,38.992279,-76.912947,,,0,,America/New_York,,,0,
31253,31253,,58th Avenue at Berwyn Road,,38.990803,-76.915896,,,0,,America/New_York,,,0,
31254,31254,,57th Avenue at Berwyn Road,,38.992468,-76.917092,,,0,,America/New_York,,,0,
31255,31255,,Quebec Street at 58th Avenue,,38.993218,-76.914538,,,0,,America/New_York,,,0,
31256,31256,,60th Avenue at Quebec Street,,38.9933467164178,-76.9120233222161,,,0,,America/New_York,,,0,
31257,31257,,60th Avenue at Seminole Street,,38.9958567998538,-76.9117413875148,,,0,,America/New_York,,,0,
31258,31258,,60th Avenue at Greenbelt Road,,38.99732,-76.912028,,,0,,America/New_York,,,0,
31259,31259,,Cherrywood Lane at Beltway Plaza Shopping Center,,38.999443,-76.911842,,,0,,America/New_York,,,0,
31260,31260,,Breezewood Drive at Cherrywood Lane,,39.0012425736235,-76.9096254284775,,,0,,America/New_York,,,0,
31261,31261,,Breezewood Drive at Cherrywood Terrace,,39.001079,-76.907586,,,0,,America/New_York,,,0,
31262,31262,,Springhill Lane at Breezewood Drive,,39.000764,-76.903611,,,0,,America/New_York,,,0,
31263,31263,,Springhill Lane at Breezewood Court,,39.002363,-76.903479,,,0,,America/New_York,,,0,
31264,31264,,Springhill Lane at Market Lane,,39.003692,-76.903097,,,0,,America/New_York,,,0,
31265,31265,,Springhill Lane at Springhill Drive,,39.004671,-76.902259,,,0,,America/New_York,,,0,
31266,31266,,Srringhill Drive at Springhill Lake Elementary,,39.005942,-76.90365,,,0,,America/New_York,,,0,
31267,31267,,Springhill Drive at Cherrywood Lane,,39.007192,-76.905586,,,0,,America/New_York,,,0,
31269,31269,,Cherrywood Lane at Springhill Drive,,39.0085240210593,-76.9052029536329,,,0,,America/New_York,,,0,
31270,31270,,Springhill Drive at Cherrywood Lane,,39.006998,-76.905506,,,0,,America/New_York,,,0,
31271,31271,,Springhill Drive at 6027 Springhill Drive,,39.0057,-76.903511,,,0,,America/New_York,,,0,
31272,31272,,Springhill Drive at Springhill Lane,,39.00515,-76.902659,,,0,,America/New_York,,,0,
31273,31273,,Springhill Lane at Springhill Drive,,39.00453,-76.90263,,,0,,America/New_York,,,0,
31274,31274,,Springhill Lane at Market Lane,,39.00371,-76.903247,,,0,,America/New_York,,,0,
31275,31275,,Springhill Lane at Breezewood Court,,39.002564,-76.903615,,,0,,America/New_York,,,0,
31276,31276,,Springhill Lane at Breezewood Drive,,39.000965,-76.903349,,,0,,America/New_York,,,0,
31277,31277,,Breezewood Drive at Cherrywood Terrace,,39.001191,-76.907926,,,0,,America/New_York,,,0,
31278,31278,,Breezewood Drive at Cherrywood Lane,,39.001391,-76.909848,,,0,,America/New_York,,,0,
31279,31279,,Cherrywood Lane at Greenbelt Road,,38.999382,-76.911603,,,0,,America/New_York,,,0,
31280,31280,,60th Avenue at Greenbelt Road,,38.997539,-76.911941,,,0,,America/New_York,,,0,
31281,31281,,60th Avenue at Seminole Street,,38.995871,-76.911605,,,0,,America/New_York,,,0,
31282,31282,,Cunningham Drive at Quebec Street,,38.99402,-76.911401,,,0,,America/New_York,,,0,
31283,31283,,Quebec Street at 58th Avenue,,38.993323,-76.914498,,,0,,America/New_York,,,0,
31284,31284,,57th Avenue at Berwyn Road,,38.992592,-76.917144,,,0,,America/New_York,,,0,
31285,31285,,Berwyn Road at 58th Avenue,,38.990682,-76.915756,,,0,,America/New_York,,,0,
31286,31286,,Pontiac Street at Cunningham Drive,,38.99225,-76.913292,,,0,,America/New_York,,,0,
31287,31287,,Pontiac Street at 60th Avenue,,38.991675,-76.910817,,,0,,America/New_York,,,0,
31288,31288,,Pontiac Street at 63rd Avenue,,38.991095,-76.908191,,,0,,America/New_York,,,0,
31289,31289,,Pontiac Street at Edmonston Road,,38.990681,-76.906589,,,0,,America/New_York,,,0,
31290,31290,,Greenbelt Road at Greenbelt Park Entrance,,38.9959494344488,-76.895476442227,,,0,,America/New_York,,,0,
31291,31291,,Greenbelt Road at Lakecrest Drive,,38.995828,-76.886924,,,0,,America/New_York,,,0,
31292,31292,,Hanover Parkway at Greenbrook Drive,,38.987901,-76.877625,,,0,,America/New_York,,,0,
31293,31293,,Hanover Parkway at Hunting Ridge Club Apts. Entrance,,38.98604,-76.876202,,,0,,America/New_York,,,0,
31294,31294,,Hanover Parkway at Lake Park Drive,,38.98427,-76.874774,,,0,,America/New_York,,,0,
31295,31295,,Hanover Parkway at Village Park Drive,,38.983727,-76.872234,,,0,,America/New_York,,,0,
31296,31296,,Hanover Parkway at Megan Lane,,38.983519,-76.87002,,,0,,America/New_York,,,0,
31297,31297,,Hanover Parkway at Spring Manor Drive,,38.983064,-76.868868,,,0,,America/New_York,,,0,
31298,31298,,Hanover Parkway at Green Manor Court,,38.981472,-76.867645,,,0,,America/New_York,,,0,
31299,31299,,Good Luck Road at Dawnwood Drive,,38.9798711174131,-76.8695903609026,,,0,,America/New_York,,,0,
31300,31300,,Good Luck Road at Cathedral Avenue,,38.976817537564,-76.8783927749808,,,0,,America/New_York,,,0,
31301,31301,,Good Luck Road at Terra Alta Drive,,38.9763717260314,-76.8803026307764,,,0,,America/New_York,,,0,
31302,31302,,Lamont Drive at Lamont Place,,38.974296,-76.882127,,,0,,America/New_York,,,0,
31303,31303,,Lamont Drive at Quentin Street,,38.972027,-76.880968,,,0,,America/New_York,,,0,
31304,31304,,Lamont Drive at Carrollton Parkway,,38.969921,-76.880457,,,0,,America/New_York,,,0,
31305,31305,,Lamont Drive at Westbrook Drive,,38.965957,-76.880585,,,0,,America/New_York,,,0,
31306,31306,,Lamont Drive at New Carrollton Library,,38.961871,-76.882024,,,0,,America/New_York,,,0,
31307,31307,,Riverdale Road at Opp. 7600 Riverdale Road,,38.960039,-76.879564,,,0,,America/New_York,,,0,
31308,31308,,Riverdale Road at Fontainbleau Drive,,38.959589,-76.877704,,,0,,America/New_York,,,0,
31309,31309,,Riverdale Road at Heritage Square Apts. Entrance,,38.958481,-76.875306,,,0,,America/New_York,,,0,
31310,31310,,Riverdale Road at Opp. Carrollton Mall Entrance,,38.957475,-76.87431,,,0,,America/New_York,,,0,
31313,31313,,85th Avenue at Opp. 5401 85th Avenue,,38.9559104547736,-76.8684272184345,,,0,,America/New_York,,,0,
31314,31314,,85th Avenue at Carrollan Garden Condominums,,38.9540078145257,-76.8689511817751,,,0,,America/New_York,,,0,
31315,31315,,Rhode Island Avenue at Mount Rainier Terminal,,38.936641336038,-76.9600569507611,,,0,,America/New_York,,,0,
31316,31316,,Rhode Island Avenue at Volta Avenue,,38.941769,-76.951645,,,0,,America/New_York,,,0,
31317,31317,,Rhode Island Avenue at Webster Street,,38.942561,-76.950552,,,0,,America/New_York,,,0,
31318,31318,,Rhode Island Avenue at 4511 Wallace Road Prem.,,38.943411,-76.949413,,,0,,America/New_York,,,0,
31319,31319,,Rhode Island Avenue at Charles Armentrout Way,,38.945891,-76.94591,,,0,,America/New_York,,,0,
31321,31321,,Rhode Island Avenue at Opp. 42nd Place,,38.948862,-76.942885,,,0,,America/New_York,,,0,
31322,31322,,Baltimore Avenue at Hamilton Street,,38.954253,-76.940265,,,0,,America/New_York,,,0,
31323,31323,,Baltimore Avenue at Longfellow Street,,38.956722,-76.940013,,,0,,America/New_York,,,0,
31324,31324,,Baltimore Avenue at Oglethorpe Street,,38.959566,-76.939893,,,0,,America/New_York,,,0,
31325,31325,,Baltimore Avenue at Harrison Avenue,,38.961387,-76.939436,,,0,,America/New_York,,,0,
31326,31326,,Baltimore Avenue at Riverdale Road,,38.962359,-76.939295,,,0,,America/New_York,,,0,
31327,31327,,Baltimore Avenue at East-West Highway,,38.9639608496762,-76.9390184421799,,,0,,America/New_York,,,0,
31328,31328,,Baltimore Avenue at Sheridan Street,,38.965691,-76.938804,,,0,,America/New_York,,,0,
31329,31329,,Baltimore Avenue at Underwood Street,,38.96828,-76.938438,,,0,,America/New_York,,,0,
31330,31330,,Baltimore Avenue at Van Buren Street,,38.9699322745815,-76.9384064642308,,,0,,America/New_York,,,0,
31331,31331,,Baltimore Avenue at Amherst Road,,38.9728954970714,-76.9377906446107,,,0,,America/New_York,,,0,
31332,31332,,Baltimore Avenue at Guilford Road,,38.978071,-76.938041,,,0,,America/New_York,,,0,
31333,31333,,Baltimore Avenue at Hartwick Road,,38.979463,-76.937791,,,0,,America/New_York,,,0,
31334,31334,,Baltimore Avenue at Knox Road,,38.981192,-76.937789,,,0,,America/New_York,,,0,
31335,31335,,Baltimore Avenue at Rossborough Lane,,38.985289,-76.937065,,,0,,America/New_York,,,0,
31336,31336,,Campus Drive at Baltimore Avenue,,38.987919,-76.934027,,,0,,America/New_York,,,0,
31337,31337,,Campus Drive at Baltimore Avenue,,38.987054,-76.933127,,,0,,America/New_York,,,0,
31338,31338,,Baltimore Avenue at Lakeland Road,,38.990156,-76.934083,,,0,,America/New_York,,,0,
31339,31339,,Baltimore Avenue at Berwyn House Road,,38.992346379205,-76.9331488149218,,,0,,America/New_York,,,0,
31340,31340,,Baltimore Avenue at Berwyn Road,,38.9964049644217,-76.9318799544172,,,0,,America/New_York,,,0,
31341,31341,,Baltimore Avenue at Tecumseh Street,,38.997431,-76.931509,,,0,,America/New_York,,,0,
31342,31342,,Baltimore Avenue at University Boulevard,,39.0005582997766,-76.9313556594168,,,0,,America/New_York,,,0,
31343,31343,,Baltimore Avenue at Cherokee Street,,39.00377,-76.930408,,,0,,America/New_York,,,0,
31344,31344,,Baltimore Avenue at Erie Street,,39.006806,-76.929657,,,0,,America/New_York,,,0,
31345,31345,,Baltimore Avenue at Indian Lane,,39.0085509950337,-76.9291925956034,,,0,,America/New_York,,,0,
31346,31346,,Baltimore Avenue at Hollywood Road,,39.011327,-76.928383,,,0,,America/New_York,,,0,
31347,31347,,Baltimore Avenue at Cherry Hill Road,,39.0141604257998,-76.9276457044278,,,0,,America/New_York,,,0,
31348,31348,,Ikea at Bus Bay 2,,39.02222,-76.928193,,,0,,America/New_York,,,0,
31349,31349,,Ikea at Bus Bay 3,,39.021598,-76.926837,,,0,,America/New_York,,,0,
31352,31352,,Baltimore Avenue at Cherry Hill Road,,39.013747337385,-76.9280382936165,,,0,,America/New_York,,,0,
31353,31353,,Baltimore Avenue at Hollywood Road,,39.011653,-76.928533,,,0,,America/New_York,,,0,
31355,31355,,Baltimore Avenue at Opp. Indian Lane,,39.0086915348173,-76.9293829696175,,,0,,America/New_York,,,0,
31356,31356,,Baltimore Avenue at Erie Street,,39.006789,-76.929904,,,0,,America/New_York,,,0,
31357,31357,,Baltimore Avenue at Cherokee Street,,39.003822,-76.930637,,,0,,America/New_York,,,0,
31358,31358,,Baltimore Avenue at University Boulevard,,39.000914,-76.931058,,,0,,America/New_York,,,0,
31359,31359,,Baltimore Avenue at Metzerott Road,,38.998166,-76.93166,,,0,,America/New_York,,,0,
31360,31360,,Baltimore Avenue at Berwyn Road,,38.9963946326028,-76.9316176340041,,,0,,America/New_York,,,0,
31361,31361,,Baltimore Avenue at Berwyn House Road,,38.9923569936745,-76.933384268429,,,0,,America/New_York,,,0,
31362,31362,,Baltimore Avenue at Lakeland Road,,38.9903918323248,-76.934278814841,,,0,,America/New_York,,,0,
31365,31365,,Baltimore Avenue at Campus Drive,,38.9876831772605,-76.935983961236,,,0,,America/New_York,,,0,
31366,31366,,Baltimore Avenue at Rossborough Lane,,38.985813,-76.937047,,,0,,America/New_York,,,0,
31367,31367,,Baltimore Avenue at Regents Drive,,38.982371,-76.938078,,,0,,America/New_York,,,0,
31368,31368,,Baltimore Avenue at Hartwick Road,,38.97974,-76.938058,,,0,,America/New_York,,,0,
31369,31369,,Baltimore Avenue at Guilford Drive,,38.977392,-76.937783,,,0,,America/New_York,,,0,
31370,31370,,Baltimore Avenue at Queens Chapel Road,,38.972585,-76.938045,,,0,,America/New_York,,,0,
31371,31371,,Baltimore Avenue at Opp. Whole Foods,,38.9702123,-76.93809807,,,0,,America/New_York,,,0,
31372,31372,,Baltimore Avenue at Underwood Street,,38.968573,-76.938616,,,0,,America/New_York,,,0,
31373,31373,,Baltimore Avenue at Tuckerman Street,,38.966801,-76.938879,,,0,,America/New_York,,,0,
31374,31374,,Baltimore Avenue at Queensbury Road,,38.963348,-76.939371,,,0,,America/New_York,,,0,
31375,31375,,Baltimore Avenue at Oglethorpe Street,,38.959443,-76.939684,,,0,,America/New_York,,,0,
31376,31376,,Baltimore Avenue at Longfellow Street,,38.957059,-76.940177,,,0,,America/New_York,,,0,
31377,31377,,Baltimore Avenue at Jefferson Street,,38.955299723884,-76.9405047724221,,,0,,America/New_York,,,0,
31378,31378,,Baltimore Avenue at Gallatin Street,,38.953058,-76.940417,,,0,,America/New_York,,,0,
31379,31379,,Rhode Island Avenue at 42nd Place,,38.948687,-76.943391,,,0,,America/New_York,,,0,
31380,31380,,Rhode Island Avenue at 41st Place,,38.946163,-76.94616,,,0,,America/New_York,,,0,
31381,31381,,Rhode Island Avenue at Wallace Road,,38.94382,-76.949278,,,0,,America/New_York,,,0,
31382,31382,,Rhode Island Avenue at Webster Street,,38.94285373,-76.95055283,,,0,,America/New_York,,,0,
31383,31383,,Rhode Island Avenue at Volta Avenue,,38.941676,-76.952183,,,0,,America/New_York,,,0,
31384,31384,,Rhode Island Avenue at Shepherd Street,,38.940161,-76.954271,,,0,,America/New_York,,,0,
31385,31385,,Rhode Island Avenue at 38th Street,,38.939411,-76.955299,,,0,,America/New_York,,,0,
31386,31386,,Rhode Island Avenue at Opp. 37th Place,,38.938187,-76.957547,,,0,,America/New_York,,,0,
31387,31387,,Rhode Island Avenue at Mount Rainier Terminal,,38.936567,-76.960053,,,0,,America/New_York,,,0,
31388,31388,,Addison Road at Adak Street,,38.887333,-76.898416,,,0,,America/New_York,,,0,
31389,31389,,Addison Road at Adel Street,,38.88916,-76.89918,,,0,,America/New_York,,,0,
31390,31390,,Addison Road at Baltic Street,,38.890681,-76.90041,,,0,,America/New_York,,,0,
31391,31391,,Addison Road at Opp. Crown Street,,38.891931,-76.901986,,,0,,America/New_York,,,0,
31392,31392,,Addison Road at Drylog Street,,38.892915,-76.902361,,,0,,America/New_York,,,0,
31393,31393,,Addison Road at Opp. Eads Street,,38.893698,-76.903377,,,0,,America/New_York,,,0,
31394,31394,,Addison Road at Seat Pleasant Drive,,38.896008,-76.906281,,,0,,America/New_York,,,0,
31395,31395,,M.L.King Jr. Highway at Addison Road,,38.89701,-76.905772,,,0,,America/New_York,,,0,
31396,31396,,M.L.King Jr. Highway at 65th Avenue,,38.897624,-76.905492,,,0,,America/New_York,,,0,
31397,31397,,M.L.King Jr. Highway at 69th Place,,38.898894,-76.903641,,,0,,America/New_York,,,0,
31398,31398,,M.L.King Jr. Highway at Cabin Branch Drive,,38.90034,-76.902045,,,0,,America/New_York,,,0,
31399,31399,,M.L.King Jr. Highway at Opp. Glen Willow Drive,,38.902629,-76.899843,,,0,,America/New_York,,,0,
31400,31400,,M.L.King Jr. Highway at Booker Drive,,38.903726,-76.899296,,,0,,America/New_York,,,0,
31401,31401,,M.L.King Jr. Highway at Carrington Drive,,38.905035,-76.897386,,,0,,America/New_York,,,0,
31402,31402,,M.L.King Jr. Highway at Hill Road,,38.907253,-76.894443,,,0,,America/New_York,,,0,
31403,31403,,M.L.King Jr. Highway at Sheriff Road,,38.908903,-76.892953,,,0,,America/New_York,,,0,
31404,31404,,M.L.King Jr. Highway at Roosevelt Avenue,,38.911127,-76.890128,,,0,,America/New_York,,,0,
31405,31405,,M.L.King Jr. Highway at Columbia Avenue,,38.912284,-76.888683,,,0,,America/New_York,,,0,
31406,31406,,M.L.King Jr. Highway at Opp. Ryderwood Court,,38.913008,-76.887719,,,0,,America/New_York,,,0,
31407,31407,,M.L.King Jr. Highway at King Shopping Center,,38.914467,-76.885447,,,0,,America/New_York,,,0,
31408,31408,,Columbia Park Road at Marshall Place,,38.917059,-76.886217,,,0,,America/New_York,,,0,
31409,31409,,Columbia Park Road at Virginia Avenue,,38.917624,-76.889539,,,0,,America/New_York,,,0,
31410,31410,,Columbia Park Road at Columbia Place,,38.917977,-76.892873,,,0,,America/New_York,,,0,
31411,31411,,Columbia Park Road at Opp. South Club Drive,,38.918391,-76.896374,,,0,,America/New_York,,,0,
31412,31412,,Columbia Park Road at Opp. Stanford Court,,38.917996,-76.900772,,,0,,America/New_York,,,0,
31413,31413,,Columbia Park Road at Opp. Clarkson Way,,38.917569,-76.90322,,,0,,America/New_York,,,0,
31414,31414,,Columbia Park Road at Beaver Road,,38.917191,-76.905557,,,0,,America/New_York,,,0,
31415,31415,,Cheverly Avenue at Columbia Park Road,,38.918678940058,-76.9151660476515,,,0,,America/New_York,,,0,
31416,31416,,Cheverly Avenue at Opp. Arbor Street,,38.9197944610669,-76.9145022343611,,,0,,America/New_York,,,0,
31417,31417,,Cheverly Avenue at Cheverly Circle (South),,38.92177,-76.914193,,,0,,America/New_York,,,0,
31418,31418,,Cheverly Avenue at Opp. Belleview Avenue,,38.92337,-76.913147,,,0,,America/New_York,,,0,
31419,31419,,Cheverly Avenue at Forest Road,,38.925466,-76.912805,,,0,,America/New_York,,,0,
31420,31420,,Cheverly Avenue at Inwood Street,,38.927785,-76.912911,,,0,,America/New_York,,,0,
31421,31421,,Cheverly Avenue at Kilmer Street,,38.929738,-76.912793,,,0,,America/New_York,,,0,
31422,31422,,Cheverly Avenue at Lombard Street,,38.9313,-76.913255,,,0,,America/New_York,,,0,
31423,31423,,Cheverly Avenue at Montrose Road,,38.933451,-76.914486,,,0,,America/New_York,,,0,
31424,31424,,Landover Road at 58th Avenue,,38.936022,-76.918692,,,0,,America/New_York,,,0,
31425,31425,,Landover Road at 56th Avenue,,38.937276,-76.922276,,,0,,America/New_York,,,0,
31426,31426,,Landover Road at Annapolis Road (Md. Rte. 450),,38.938373,-76.924917,,,0,,America/New_York,,,0,
31427,31427,,Annapolis Road at 54th Place,,38.939159,-76.92679,,,0,,America/New_York,,,0,
31428,31428,,Annapolis Road at 53rd Place,,38.939677,-76.929022,,,0,,America/New_York,,,0,
31429,31429,,Annapolis Road at Int. High School- Langley Park,,38.9396769409874,-76.9307119669016,,,0,,America/New_York,,,0,
31430,31430,,Annapolis Road at Edmonston Road,,38.939549,-76.934027,,,0,,America/New_York,,,0,
31431,31431,,Annapolis Road at 48th Street,,38.939401,-76.93676,,,0,,America/New_York,,,0,
31432,31432,,Annapolis Road at 46th Street,,38.939047,-76.939908,,,0,,America/New_York,,,0,
31433,31433,,Bladensburg Road at 42nd Avenue,,38.937225,-76.946012,,,0,,America/New_York,,,0,
31434,31434,,Bladensburg Road at 41st Avenue,,38.936666,-76.947292,,,0,,America/New_York,,,0,
31435,31435,,Bladensburg Road at 38th Street,,38.935093,-76.950278,,,0,,America/New_York,,,0,
31436,31436,,38th Street at Parkwood Street,,38.936657,-76.952039,,,0,,America/New_York,,,0,
31437,31437,,38th Street at Perry Street,,38.93771,-76.954496,,,0,,America/New_York,,,0,
31438,31438,,38th Street at Opp. Bunker Hill Road,,38.939509,-76.955949,,,0,,America/New_York,,,0,
31439,31439,,38th Street at Shepherd Street,,38.94035052,-76.95631606,,,0,,America/New_York,,,0,
31440,31440,,38th Street at Taylor Street,,38.941869,-76.956316,,,0,,America/New_York,,,0,
31441,31441,,38th Street at Upshur Street,,38.943363,-76.956388,,,0,,America/New_York,,,0,
31442,31442,,38th Street at Volta Avenue,,38.944513,-76.956522,,,0,,America/New_York,,,0,
31443,31443,,Queens Chapel Road at Hamilton Street,,38.95614,-76.961462,,,0,,America/New_York,,,0,
31444,31444,,Queens Chapel Road at Lancer Drive,,38.957433,-76.959504,,,0,,America/New_York,,,0,
31445,31445,,Queens Chapel Road at 5805 Queens Chapel Road,,38.959505,-76.956797,,,0,,America/New_York,,,0,
31446,31446,,Queens Chapel Road at Nicholson Street,,38.960539,-76.955497,,,0,,America/New_York,,,0,
31447,31447,,Queens Chapel Road at Oliver Street,,38.962008,-76.953733,,,0,,America/New_York,,,0,
31448,31448,,Belcrest Road at Queens Chapel Road,,38.9642129774824,-76.9529204692688,,,0,,America/New_York,,,0,
31449,31449,,Belcrest Road at Opp. Belcrest Drive,,38.965458,-76.953761,,,0,,America/New_York,,,0,
31550,31550,,23rd Avenue at Sheridan Street,,38.969762,-76.972829,,,0,,America/New_York,,,0,
31551,31551,,23rd Avenue at Woodberry Street,,38.972246,-76.971772,,,0,,America/New_York,,,0,
31552,31552,,23rd Avenue at Banning Place,,38.975272,-76.97164,,,0,,America/New_York,,,0,
31553,31553,,23rd Avenue at Drexel Street,,38.976804,-76.971686,,,0,,America/New_York,,,0,
31554,31554,,23rd Avenue at Fordham Street,,38.979558,-76.970779,,,0,,America/New_York,,,0,
31555,31555,,23rd Avenue at Chapman Road,,38.981316,-76.971005,,,0,,America/New_York,,,0,
31556,31556,,23rd Avenue at Lewisdale Drive,,38.983396,-76.97128,,,0,,America/New_York,,,0,
31557,31557,,23rd Avenue at Lewisdale Drive,,38.98338,-76.971454,,,0,,America/New_York,,,0,
31558,31558,,University Boulevard at Phelps Road,,38.98406,-76.973163,,,0,,America/New_York,,,0,
31559,31559,,University Boulevard at Guilford Road,,38.98371,-76.976606,,,0,,America/New_York,,,0,
31560,31560,,University Boulevard at Riggs Road,,38.983427161278,-76.9778369710736,,,0,,America/New_York,,,0,
31561,31561,,15th Avenue at University Boulevard,,38.985571,-76.981371,,,0,,America/New_York,,,0,
31562,31562,,Kanawha Street at 15th Avenue,,38.987939,-76.981488,,,0,,America/New_York,,,0,
31563,31563,,Kanawha Street at 14th Avenue,,38.98832,-76.983581,,,0,,America/New_York,,,0,
31564,31564,,14th Avenue at Langley Way,,38.990257,-76.984353,,,0,,America/New_York,,,0,
31565,31565,,East-West Highway at Prince Georges Mall Entrance,,38.9666970028396,-76.95792168233,,,0,,America/New_York,,,0,
31566,31566,,Takoma Langely Park Transit Center at Bus Bay B,,38.989878,-76.988371,,,0,,America/New_York,,,0,
31567,31567,,Merrimac Street at New Hampshire Ave.Service Road,,38.9927258375225,-76.9860041371618,,,0,,America/New_York,,,0,
31568,31568,,Merrimac Street at 14th Avenue,,38.992333201373,-76.9845605264149,,,0,,America/New_York,,,0,
31569,31569,,14th Avenue at Langley Way,,38.9904940976902,-76.9845480539617,,,0,,America/New_York,,,0,
31570,31570,,14th Avenue at Kanawha Street,,38.988407314873,-76.9839016090608,,,0,,America/New_York,,,0,
31571,31571,,Kanawha Street at 15th Avenue,,38.987807,-76.981483,,,0,,America/New_York,,,0,
31572,31572,,15th Avenue at University Boulevard,,38.986125,-76.981194,,,0,,America/New_York,,,0,
31573,31573,,University Boulevard at Riggs Road,,38.98371,-76.977815,,,0,,America/New_York,,,0,
31574,31574,,University Boulevard at Riggs Road,,38.9845931575974,-76.9802917483706,,,0,,America/New_York,,,0,
31575,31575,,University Boulevard at Guilford Road,,38.98354,-76.976444,,,0,,America/New_York,,,0,
31576,31576,,University Boulevard at Phelps Road,,38.98387,-76.973268,,,0,,America/New_York,,,0,
31579,31579,,23rd Avenue at Beechwood Road,,38.97966,-76.970947,,,0,,America/New_York,,,0,
31580,31580,,23rd Avenue at Drexel Street,,38.977191,-76.971839,,,0,,America/New_York,,,0,
31581,31581,,23rd Avenue at Banning Place,,38.975502,-76.971801,,,0,,America/New_York,,,0,
31582,31582,,23rd Avenue at Amherst Road,,38.972865,-76.971728,,,0,,America/New_York,,,0,
31583,31583,,23rd Avenue at Sheridan Street,,38.969748,-76.972674,,,0,,America/New_York,,,0,
31584,31584,,Belcrest Road at Belcrest Drive,,38.9660249205163,-76.9542211235248,,,0,,America/New_York,,,0,
31585,31585,,Belcrest Road at Queens Chapel Road,,38.9643556710372,-76.9526446421763,,,0,,America/New_York,,,0,
31586,31586,,Queens Chapel Road at Oliver Street,,38.963135,-76.952881,,,0,,America/New_York,,,0,
31587,31587,,Queens Chapel Road at Nicholson Street,,38.960808,-76.955689,,,0,,America/New_York,,,0,
31588,31588,,Queens Chapel Road at Opp. 5805 Queens Chapel Road,,38.959636,-76.957142,,,0,,America/New_York,,,0,
31589,31589,,Queens Chapel Road at Lancer Drive,,38.957469,-76.959893,,,0,,America/New_York,,,0,
31590,31590,,38th Street at Gaines Alley,,38.950138,-76.95606,,,0,,America/New_York,,,0,
31591,31591,,38th Street at Allison Street,,38.948038,-76.956638,,,0,,America/New_York,,,0,
31592,31592,,38th Street at Windom Road,,38.946915,-76.956734,,,0,,America/New_York,,,0,
31593,31593,,38th Street at Volta Avenue,,38.944922,-76.956706,,,0,,America/New_York,,,0,
31594,31594,,38th Street at Utah Avenue,,38.942818,-76.95654,,,0,,America/New_York,,,0,
31595,31595,,38th Street at Shepherd Street,,38.940442,-76.956167,,,0,,America/New_York,,,0,
31596,31596,,38th Street at Bunker Hill Road,,38.93941,-76.956061,,,0,,America/New_York,,,0,
31597,31597,,38th Street at Perry Street,,38.937732,-76.95418,,,0,,America/New_York,,,0,
31598,31598,,38th Street at Parkwood Street,,38.93641,-76.952064,,,0,,America/New_York,,,0,
31599,31599,,Bladensburg Road at 38th Street,,38.93523,-76.950484,,,0,,America/New_York,,,0,
31600,31600,,Bladensburg Road at 40th Avenue,,38.935613,-76.949108,,,0,,America/New_York,,,0,
31601,31601,,Bladensburg Road at 40th Place,,38.936153,-76.947863,,,0,,America/New_York,,,0,
31602,31602,,Bladensburg Road at 42nd Avenue,,38.936792,-76.946406,,,0,,America/New_York,,,0,
31603,31603,,Bladensburg Road at 43rd Avenue,,38.937545,-76.944823,,,0,,America/New_York,,,0,
31604,31604,,Annapolis Road at 46th Street,,38.939313,-76.940104,,,0,,America/New_York,,,0,
31605,31605,,Annapolis Road at 48th Street,,38.939261,-76.935705,,,0,,America/New_York,,,0,
31606,31606,,Annapolis Road at Edmonston Road,,38.939357,-76.933248,,,0,,America/New_York,,,0,
31607,31607,,Annapolis Road at Bladensburg Elem. School Entrance,,38.9394412478714,-76.9314248652816,,,0,,America/New_York,,,0,
31608,31608,,Annapolis Road at 53rd Street,,38.939513,-76.929494,,,0,,America/New_York,,,0,
31609,31609,,Annapolis Road at 54th Street,,38.939009,-76.927031,,,0,,America/New_York,,,0,
31610,31610,,Landover Road at Annapolis Road (Md. Rte. 450),,38.938275,-76.924025,,,0,,America/New_York,,,0,
31611,31611,,Landover Road at 55th Avenue,,38.937934,-76.923834,,,0,,America/New_York,,,0,
31612,31612,,Landover Road at 56th Avenue,,38.937307,-76.921794,,,0,,America/New_York,,,0,
31613,31613,,Landover Road at 57th Avenue,,38.936423,-76.920244,,,0,,America/New_York,,,0,
31614,31614,,Landover Road at 58th Place,,38.935567,-76.918307,,,0,,America/New_York,,,0,
31615,31615,,Cheverly Avenue at Montrose Road,,38.933342,-76.914643,,,0,,America/New_York,,,0,
31616,31616,,Cheverly Avenue at Lombard Street,,38.931393,-76.913468,,,0,,America/New_York,,,0,
31617,31617,,Cheverly Avenue at Kilmer Street,,38.929974,-76.912645,,,0,,America/New_York,,,0,
31618,31618,,Cheverly Avenue at Inwood Street,,38.928072,-76.913082,,,0,,America/New_York,,,0,
31619,31619,,Cheverly Avenue at Forest Road,,38.925406,-76.912986,,,0,,America/New_York,,,0,
31620,31620,,Cheverly Avenue at Belleview Parkway,,38.9222610152472,-76.9141877100504,,,0,,America/New_York,,,0,
31622,31622,,Cheverly Avenue at Arbor Street,,38.919758,-76.914361,,,0,,America/New_York,,,0,
31623,31623,,Cheverly Avenue at Columbia Park Road,,38.918616,-76.914974,,,0,,America/New_York,,,0,
31624,31624,,Columbia Park Road at Beaver Road,,38.916993,-76.905539,,,0,,America/New_York,,,0,
31625,31625,,Columbia Park Road at Clarkson Way,,38.917413,-76.903391,,,0,,America/New_York,,,0,
31626,31626,,Columbia Park Road at Stanford Court,,38.917835,-76.901092,,,0,,America/New_York,,,0,
31627,31627,,Columbia Park Road at South Club Drive,,38.918276,-76.896108,,,0,,America/New_York,,,0,
31628,31628,,Columbia Park Road at Columbia Place,,38.91801,-76.892777,,,0,,America/New_York,,,0,
31629,31629,,Columbia Park Road at Oregon Avenue,,38.917591,-76.890121,,,0,,America/New_York,,,0,
31630,31630,,Columbia Park Road at East Marshall Place,,38.917108,-76.886311,,,0,,America/New_York,,,0,
31631,31631,,M.L.King Jr. Highway at Columbia Park Road,,38.91485,-76.88547,,,0,,America/New_York,,,0,
31632,31632,,M.L.King Jr. Highway at Ryderwood Court,,38.913383,-76.887699,,,0,,America/New_York,,,0,
31633,31633,,M.L.King Jr. Highway at Columbia Avenue,,38.9125119881626,-76.8889573850372,,,0,,America/New_York,,,0,
31634,31634,,M.L.King Jr. Highway at Roosevelt Avenue,,38.911578,-76.890098,,,0,,America/New_York,,,0,
31635,31635,,M.L.King Jr. Highway at Sheriff Road,,38.908936,-76.892445,,,0,,America/New_York,,,0,
31636,31636,,M.L.King Jr. Highway at Southland Drive,,38.907265,-76.894896,,,0,,America/New_York,,,0,
31637,31637,,M.L.King Jr. Highway at Carrington Avenue,,38.905531,-76.89725,,,0,,America/New_York,,,0,
31638,31638,,M.L.King Jr. Highway at Booker Drive,,38.903727,-76.898889,,,0,,America/New_York,,,0,
31639,31639,,M.L.King Jr. Highway at Glen Willow Drive,,38.902918,-76.899991,,,0,,America/New_York,,,0,
31640,31640,,M.L.King Jr. Highway at Greig Street,,38.900695,-76.902088,,,0,,America/New_York,,,0,
31641,31641,,M.L.King Jr. Highway at 69th Place,,38.89905,-76.903919,,,0,,America/New_York,,,0,
31642,31642,,M.L.King Jr. Highway at 65th Avenue,,38.897579,-76.905116,,,0,,America/New_York,,,0,
31643,31643,,Addison Road at James Farmer Way,,38.895795,-76.906161,,,0,,America/New_York,,,0,
31644,31644,,Addison Road at Drylog Street,,38.893112,-76.902759,,,0,,America/New_York,,,0,
31645,31645,,Addison Road at Crown Street,,38.891986,-76.901826,,,0,,America/New_York,,,0,
31646,31646,,Addison Road at Baltic Street,,38.890552,-76.900563,,,0,,America/New_York,,,0,
31647,31647,,Addison Road at Adel Street,,38.889251,-76.898964,,,0,,America/New_York,,,0,
31648,31648,,Addison Road at Adak Street,,38.887582,-76.898244,,,0,,America/New_York,,,0,
32001,32001,,Addison Road at St. Margarets School,,38.882939,-76.897322,,,0,,America/New_York,,,0,
32002,32002,,Addison Road at Ernie Banks Street,,38.881126,-76.896717,,,0,,America/New_York,,,0,
32003,32003,,Addison Road at Walbridge Street,,38.8796389107143,-76.8965555645491,,,0,,America/New_York,,,0,
32004,32004,,Addison Road at Ronald Road,,38.872456,-76.894747,,,0,,America/New_York,,,0,
32005,32005,,Addison Road at Walker Mill Road,,38.867351,-76.892637,,,0,,America/New_York,,,0,
32006,32006,,Walker Mill Road at Rochell Avenue,,38.86454,-76.894159,,,0,,America/New_York,,,0,
32007,32007,,County Road at Valley Brook Apartments,,38.861303,-76.898517,,,0,,America/New_York,,,0,
32008,32008,,County Road at Belwood Street,,38.860042,-76.898829,,,0,,America/New_York,,,0,
32009,32009,,County Road at Elmhurst Street,,38.856521,-76.899133,,,0,,America/New_York,,,0,
32010,32010,,County Road at Foster Street,,38.855515,-76.899036,,,0,,America/New_York,,,0,
32011,32011,,Marlboro Pike at Kipling Parkway,,38.853298,-76.896551,,,0,,America/New_York,,,0,
32012,32012,,Marlboro Pike at Upland Avenue,,38.852068,-76.89308,,,0,,America/New_York,,,0,
32013,32013,,Marlboro Pike at Walters Lane,,38.851616,-76.890236,,,0,,America/New_York,,,0,
32014,32014,,Marlboro Pike at Forest Run Drive,,38.8501666903996,-76.8872761972947,,,0,,America/New_York,,,0,
32015,32015,,Donnell Drive at Marlboro Pike,,38.848881,-76.885307,,,0,,America/New_York,,,0,
32016,32016,,Donnell Drive at Target,,38.8476327853043,-76.8852755813809,,,0,,America/New_York,,,0,
32017,32017,,Donnell Drive at Pennsylvania Avenue,,38.844606,-76.884864,,,0,,America/New_York,,,0,
32018,32018,,Pennsylvania Avenue at Forestville Road,,38.841645,-76.877364,,,0,,America/New_York,,,0,
32019,32019,,Pennsylvania Avenue at Old Marlboro Place,,38.837547,-76.862481,,,0,,America/New_York,,,0,
32020,32020,,Dower House Rd at Old Marlboro Pike,,38.81664182,-76.84984753,,,0,,America/New_York,,,0,
32021,32021,,Melwood Training Center,,38.81092668,-76.84650142,,,0,,America/New_York,,,0,
32022,32022,,Old Pike Way at Dower House Road,,38.810839,-76.848825,,,0,,America/New_York,,,0,
32023,32023,,Dower House Road at Old Pike Way,,38.8109506703355,-76.8494238588481,,,0,,America/New_York,,,0,
32024,32024,,Dower House Road at Old Marlboro Pike,,38.81654,-76.849677,,,0,,America/New_York,,,0,
32025,32025,,Marlboro Pike at Tuckers Restaurant,,38.8185349614484,-76.8467542456944,,,0,,America/New_York,,,0,
32026,32026,,Marlboro Pike at Melwood Mall,,38.816694,-76.842141,,,0,,America/New_York,,,0,
32027,32027,,Marlboro Pike at Marwood Boulevard N.,,38.813732,-76.833417,,,0,,America/New_York,,,0,
32028,32028,,Woodyard Road at Marlboro Pike,,38.81092,-76.824581,,,0,,America/New_York,,,0,
32029,32029,,Old Marlboro Pike at Melwood Road,,38.815302,-76.823408,,,0,,America/New_York,,,0,
32030,32030,,Old Marlboro Pike at Melwood Park Avenue,,38.812273,-76.818619,,,0,,America/New_York,,,0,
32031,32031,,Old Marlboro Pike at Roblee Drive,,38.813242,-76.812018,,,0,,America/New_York,,,0,
32032,32032,,Old Marlboro Pike at Brooklee Drive,,38.814969,-76.807844,,,0,,America/New_York,,,0,
32033,32033,,Old Marlboro Pike at Charles Hill Boulevard,,38.8161,-76.805222,,,0,,America/New_York,,,0,
32034,32034,,Old Marlboro Pike at Derby Manor Lane,,38.815017,-76.792797,,,0,,America/New_York,,,0,
32035,32035,,Old Marlboro Pike at Weldon Manor Lane,,38.814737,-76.790938,,,0,,America/New_York,,,0,
32036,32036,,Old Marlboro Pike at Atherstone Terrace,,38.814986,-76.784369,,,0,,America/New_York,,,0,
32037,32037,,Old Marlboro Pike at Ritchie-Marlboro Road,,38.815503,-76.778894,,,0,,America/New_York,,,0,
32038,32038,,Old Marlboro Pike at Antioch Baptist Church,,38.815621,-76.776985,,,0,,America/New_York,,,0,
32039,32039,,Old Marlboro Pike at Mount Airy Lane,,38.815908,-76.773626,,,0,,America/New_York,,,0,
32040,32040,,Old Marlboro Pike at Spring Drive,,38.816392,-76.771169,,,0,,America/New_York,,,0,
32041,32041,,Old Marlboro Pike at Maple Shade Lane,,38.817036,-76.769428,,,0,,America/New_York,,,0,
32042,32042,,Old Marlboro Pike at John Rogers Boulevard,,38.819627,-76.761287,,,0,,America/New_York,,,0,
32043,32043,,Old Marlboro Pike at Starting Gate Drive,,38.817735,-76.767301,,,0,,America/New_York,,,0,
32044,32044,,Old Marlboro Pike at Marlborough Way,,38.818442,-76.758125,,,0,,America/New_York,,,0,
32045,32045,,Old Marlboro Pike at Old Mill Road,,38.818006,-76.757083,,,0,,America/New_York,,,0,
32046,32046,,Old Marlboro Pike at Old Mill Road,,38.818034,-76.756902,,,0,,America/New_York,,,0,
32048,32048,,Old Marlboro Pike at Starting Gate Drive,,38.817687,-76.767972,,,0,,America/New_York,,,0,
32049,32049,,Old Marlboro Pike at Maple Shade Lane,,38.81719,-76.769391,,,0,,America/New_York,,,0,
32050,32050,,Old Marlboro Pike at West Maple Shade Lane,,38.816728,-76.770558,,,0,,America/New_York,,,0,
32051,32051,,Old Marlboro Pike at Mount Airy Lane,,38.81602695549,-76.7736487852788,,,0,,America/New_York,,,0,
32052,32052,,Old Marlboro Pike at Spring Drive,,38.8164419749092,-76.7713559064034,,,0,,America/New_York,,,0,
32054,32054,,Old Marlboro Pike at Ritchie-Marlboro Road,,38.815754,-76.777061,,,0,,America/New_York,,,0,
32055,32055,,Old Marlboro Pike at Ritchie-Marlboro Road,,38.815623,-76.779126,,,0,,America/New_York,,,0,
32056,32056,,Old Marlboro Pike at Atherstone Terrace,,38.815164,-76.784075,,,0,,America/New_York,,,0,
32057,32057,,Old Marlboro Pike at Weldon Manor Lane,,38.814847,-76.790811,,,0,,America/New_York,,,0,
32058,32058,,Old Marlboro Pike at Derby Manor Lane,,38.81521,-76.793537,,,0,,America/New_York,,,0,
32059,32059,,Old Marlboro Pike at Charles Hill Boulevard,,38.816306,-76.805028,,,0,,America/New_York,,,0,
32060,32060,,Old Marlboro Pike at Brooklee Drive,,38.814978,-76.808117,,,0,,America/New_York,,,0,
32061,32061,,Old Marlboro Pike at Roblee Drive,,38.813173,-76.812514,,,0,,America/New_York,,,0,
32062,32062,,Old Marlboro Pike at Melwood Park Avenue,,38.812326,-76.818187,,,0,,America/New_York,,,0,
32063,32063,,Old Marlboro Pike at Melwood Chapel Lane,,38.815407,-76.823375,,,0,,America/New_York,,,0,
32064,32064,,Woodyard Road at Marlboro Pike,,38.81113,-76.824819,,,0,,America/New_York,,,0,
32065,32065,,Marlboro Pike at Marwood Boulevard N.,,38.8139,-76.83341,,,0,,America/New_York,,,0,
32066,32066,,Marlboro Pike at Melwood Mall,,38.816795,-76.841981,,,0,,America/New_York,,,0,
32067,32067,,Marlboro Pike at Tuckers Restaurant,,38.8186722395475,-76.8466611380675,,,0,,America/New_York,,,0,
32072,32072,,Pennsylvania Avenue at Forestville Road,,38.841895,-76.876672,,,0,,America/New_York,,,0,
32073,32073,,Donnell Drive at Pennsylvania Avenue,,38.844587,-76.884579,,,0,,America/New_York,,,0,
32074,32074,,Donnell Drive at Penn-Mar Shopping Center,,38.8477289,-76.88498494,,,0,,America/New_York,,,0,
32075,32075,,Donnell Drive at Marlboro Pike,,38.848835,-76.885027,,,0,,America/New_York,,,0,
32076,32076,,Marlboro Pike at Whitney Place,,38.850218,-76.886813,,,0,,America/New_York,,,0,
32077,32077,,Marlboro Pike at Walters Lane,,38.851547,-76.89072,,,0,,America/New_York,,,0,
32078,32078,,Marlboro Pike at Upland Avenue,,38.852386,-76.893652,,,0,,America/New_York,,,0,
32079,32079,,Marlboro Pike at Kipling Parkway,,38.853016,-76.896538,,,0,,America/New_York,,,0,
32080,32080,,County Road at Foster Street,,38.855373,-76.899235,,,0,,America/New_York,,,0,
32081,32081,,County Road at Elmhurst Street,,38.856727,-76.898961,,,0,,America/New_York,,,0,
32082,32082,,County Road at Belwood Street,,38.859642,-76.898684,,,0,,America/New_York,,,0,
32083,32083,,County Road at Valley Brook Apartments,,38.861374,-76.898323,,,0,,America/New_York,,,0,
32084,32084,,Walker Mill Road at Rochell Avenue,,38.86425,-76.89466,,,0,,America/New_York,,,0,
32085,32085,,Addison Road at Walker Mill Road,,38.868038,-76.89268,,,0,,America/New_York,,,0,
32086,32086,,Addison Road at Ronald Road,,38.872886,-76.894681,,,0,,America/New_York,,,0,
32087,32087,,Addison Road at Wilburn Drive,,38.87963,-76.896346,,,0,,America/New_York,,,0,
32088,32088,,Addison Road at Health Clinic Entrance,,38.881315,-76.896926,,,0,,America/New_York,,,0,
32089,32089,,Addison Road at St. Margarets School,,38.883371,-76.897191,,,0,,America/New_York,,,0,
32090,32090,,Largo Road at Buck Lane,,38.8214512774801,-76.7462804593332,,,0,,America/New_York,,,0,
32091,32091,,Largo Road at Kent Drive,,38.8362278661683,-76.7555398119579,,,0,,America/New_York,,,0,
32092,32092,,Largo Road at Eton Drive,,38.8417336896816,-76.7584531363124,,,0,,America/New_York,,,0,
32093,32093,,Largo Road at Kirkham Lane,,38.84567,-76.763191,,,0,,America/New_York,,,0,
32094,32094,,Largo Road at Brock Drive,,38.847073,-76.764821,,,0,,America/New_York,,,0,
32095,32095,,Largo Road at Town Farm Road,,38.856195,-76.770694,,,0,,America/New_York,,,0,
32096,32096,,Largo Road at Water Fowl Way,,38.8659651037155,-76.7763753427492,,,0,,America/New_York,,,0,
32097,32097,,Largo Road at Black Swan Drive,,38.871162,-76.78023,,,0,,America/New_York,,,0,
32098,32098,,Largo Road at Watkins Park Drive,,38.872763,-76.782945,,,0,,America/New_York,,,0,
32099,32099,,Largo Road at Riverdale Bapt. School,,38.874303,-76.788335,,,0,,America/New_York,,,0,
32100,32100,,Largo Road at Largo Landing,,38.874621,-76.795341,,,0,,America/New_York,,,0,
32101,32101,,Largo Road at White House Road,,38.8764118686947,-76.8049056831824,,,0,,America/New_York,,,0,
32102,32102,,Largo Road at Drumsheugh Lane,,38.878841,-76.810262,,,0,,America/New_York,,,0,
32103,32103,,Largo Road at Homestead Drive,,38.882258,-76.8127,,,0,,America/New_York,,,0,
32104,32104,,Largo Road at Kettering Drive,,38.883888,-76.813856,,,0,,America/New_York,,,0,
32106,32106,,Campus Way South at PGCC Perimeter Road,,38.8890352977321,-76.8288736933871,,,0,,America/New_York,,,0,
32107,32107,,Campus Way South at Opp. College Station Drive (PGCC),,38.88949787,-76.82650316,,,0,,America/New_York,,,0,
32108,32108,,Landover Road at Lake Arbor Way,,38.902618,-76.832875,,,0,,America/New_York,,,0,
32109,32109,,Brightseat Road at Hamlin Street,,38.92682,-76.858979,,,0,,America/New_York,,,0,
32110,32110,,Brightseat Road at Mcclain Avenue,,38.929363,-76.859393,,,0,,America/New_York,,,0,
32111,32111,,Brightseat Road at Glenarden Parkway,,38.9305237953597,-76.8596581268334,,,0,,America/New_York,,,0,
32112,32112,,Brightseat Road at Amador Drive,,38.93292,-76.859374,,,0,,America/New_York,,,0,
32113,32113,,Ardwick-Ardmore Road at M.L. King Jr. Highway (Md. Rte. 704),,38.9372477728778,-76.8587691492297,,,0,,America/New_York,,,0,
32114,32114,,Ardwick-Ardmore Road at Extra Space Storage,,38.9382817472812,-76.8597497478965,,,0,,America/New_York,,,0,
32115,32115,,Ardwick-Ardmore Road at West Street,,38.939242,-76.860633,,,0,,America/New_York,,,0,
32116,32116,,Ardwick-Ardmore Road at 8440 Ups Building,,38.941689,-76.865991,,,0,,America/New_York,,,0,
32117,32117,,Ardwick-Ardmore Road at Ups Customer Center,,38.9420582940429,-76.8674539015916,,,0,,America/New_York,,,0,
32118,32118,,Ardwick-Ardmore Road at Opp. Ardwick Place,,38.942834,-76.870718,,,0,,America/New_York,,,0,
32119,32119,,Corporate Drive at 8201 Corporate Drive,,38.946731,-76.864823,,,0,,America/New_York,,,0,
32120,32120,,Corporate Drive at 8401 Corporate Drive,,38.947065,-76.862486,,,0,,America/New_York,,,0,
32121,32121,,Professional Place at 8300 Professional Place,,38.94997,-76.863086,,,0,,America/New_York,,,0,
32122,32122,,Professional Place at 8100 Professional Place,,38.950069,-76.865916,,,0,,America/New_York,,,0,
32123,32123,,Professional Place at Opp. 8100 Professional Place,,38.9501899138258,-76.8657325022796,,,0,,America/New_York,,,0,
32124,32124,,Professional Place at 8301 Professional Place,,38.949835,-76.862979,,,0,,America/New_York,,,0,
32125,32125,,Corporate Drive at 8401 Corporate Drive,,38.946948,-76.862239,,,0,,America/New_York,,,0,
32126,32126,,Corporate Drive at 8300 Corporate Drive,,38.946872,-76.864921,,,0,,America/New_York,,,0,
32127,32127,,Ardwick-Ardmore Road at Ardwick Place,,38.942892,-76.870182,,,0,,America/New_York,,,0,
32128,32128,,Ardwick-Ardmore Road at 8325 UPS Building,,38.941489,-76.866029,,,0,,America/New_York,,,0,
32129,32129,,Ardwick-Ardmore Road at 8343 Ardwick-Ardmore Road,,38.9419062975414,-76.8677236870962,,,0,,America/New_York,,,0,
32130,32130,,Ardwick-Ardmore Road at Preston Street,,38.9397237229935,-76.8614949949208,,,0,,America/New_York,,,0,
32131,32131,,Ardwick-Ardmore Road at M.L. King Jr. Highway (Md. Rte. 704),,38.936901,-76.858676,,,0,,America/New_York,,,0,
32132,32132,,Brightseat Road at Sterling Street,,38.9342358270439,-76.8591040158951,,,0,,America/New_York,,,0,
32133,32133,,Brightseat Road at Amador Drive,,38.9329179072788,-76.859556869499,,,0,,America/New_York,,,0,
32134,32134,,Brightseat Road at Glenarden Library,,38.9304193234262,-76.8598114567113,,,0,,America/New_York,,,0,
32135,32135,,Brightseat Road at Hamlin Street,,38.926505,-76.85872,,,0,,America/New_York,,,0,
32136,32136,,Brightseat Road at Girard Street,,38.925532,-76.858732,,,0,,America/New_York,,,0,
32151,32151,,Landover Road at Arena Drive,,38.902147,-76.833337,,,0,,America/New_York,,,0,
32152,32152,,Campus Way South at College Station Drive (PGCC),,38.8897650846268,-76.8267231271719,,,0,,America/New_York,,,0,
32153,32153,,PGCC Perimeter Road at Annex A Building,,38.887417,-76.829131,,,0,,America/New_York,,,0,
32154,32154,,PGCC Perimeter Road at Largo High School,,38.887819,-76.820922,,,0,,America/New_York,,,0,
32155,32155,,Largo Road at West Kettering Drive,,38.8837661327774,-76.8143119632221,,,0,,America/New_York,,,0,
32156,32156,,Largo Road at Capitol Christian Academy,,38.881112,-76.812681,,,0,,America/New_York,,,0,
32157,32157,,Largo Road at Mount Lubentia Way,,38.879411,-76.811505,,,0,,America/New_York,,,0,
32158,32158,,Largo Road at White House Road,,38.876481,-76.803202,,,0,,America/New_York,,,0,
32159,32159,,Largo Road at Largo Landing,,38.875021,-76.795289,,,0,,America/New_York,,,0,
32160,32160,,Largo Road at Riverdale Bapt. School,,38.874705,-76.791018,,,0,,America/New_York,,,0,
32161,32161,,Largo Road at Watkins Park Drive,,38.873113,-76.782735,,,0,,America/New_York,,,0,
32162,32162,,Largo Road at Hancock Drive,,38.870677,-76.780312,,,0,,America/New_York,,,0,
32163,32163,,Largo Road at Water Fowl Way,,38.8650405880847,-76.7762310783534,,,0,,America/New_York,,,0,
32164,32164,,Largo Road at Frontgate Drive,,38.8560261019398,-76.7708830608904,,,0,,America/New_York,,,0,
32165,32165,,Largo Road at Opp. Brock Drive,,38.8469413852295,-76.7649520841477,,,0,,America/New_York,,,0,
32166,32166,,Largo Road at Kirkham Lane,,38.846182,-76.763633,,,0,,America/New_York,,,0,
32167,32167,,Largo Road at Eton Drive,,38.8416167007741,-76.7585792363321,,,0,,America/New_York,,,0,
32168,32168,,Largo Road at Kent Drive,,38.8363103928451,-76.7554110659301,,,0,,America/New_York,,,0,
32169,32169,,Largo Road at Buck Lane,,38.82135,-76.745954,,,0,,America/New_York,,,0,
32172,32172,,Brightseat Road at Ardwick-Ardmore Road,,38.935767,-76.857212,,,0,,America/New_York,,,0,
32178,32178,,Valley Trail Ln at Bain Dr 1,,38.90184,-76.86451,,,0,,America/New_York,,,0,
32179,32179,,Valley Trail Ln at Bain Dr 2,,38.90291,-76.861939,,,0,,America/New_York,,,0,
32180,32180,,Valley Trail Ln at Catesby Ct,,38.90251,-76.860366,,,0,,America/New_York,,,0,
32181,32181,,Valley Trail Ln at Romford Dr,,38.89962,-76.861699,,,0,,America/New_York,,,0,
32182,32182,,Chatsfield Way & Tweed Way,,38.897408,-76.858453,,,0,,America/New_York,,,0,
32183,32183,,Chatsfield Way & Reading Terr,,38.898102,-76.855873,,,0,,America/New_York,,,0,
32184,32184,,Chatsfield Way & Palmerton Terr,,38.898362,-76.860779,,,0,,America/New_York,,,0,
32185,32185,,Ridgefield Blvd at Stretford Way,,38.89818042,-76.86401065,,,0,,America/New_York,,,0,
32186,32186,,Garrett A. Morgan Blvd at Sgt. Hartman Ln,,38.894913,-76.866383,,,0,,America/New_York,,,0,
32187,32187,,Fieldstone Way,,38.89391571,-76.86241827,,,0,,America/New_York,,,0,
32188,32188,,Central Avenue at Ritchie Road,,38.8897198293551,-76.8617348741132,,,0,,America/New_York,,,0,
32189,32189,,Central Avenue at Norair Avenue,,38.890251465119,-76.8589629542873,,,0,,America/New_York,,,0,
32190,32190,,Brightseat Rd at Glen Valley Dr,,38.891961,-76.851988,,,0,,America/New_York,,,0,
32191,32191,,403 Brightseat Rd,,38.894365,-76.851074,,,0,,America/New_York,,,0,
32192,32192,,Brightseat Rd at Social Services Bldg.,,38.896049,-76.851503,,,0,,America/New_York,,,0,
32193,32193,,Brightseat Rd at Continental Pl,,38.899072,-76.852823,,,0,,America/New_York,,,0,
32194,32194,,Centre Pointe Office Park,,38.902169,-76.85315,,,0,,America/New_York,,,0,
32195,32195,,Brightseat Rd at 901 Brightseat Rd,,38.903141,-76.853166,,,0,,America/New_York,,,0,
32196,32196,,Jericho City Dr at 8501 Jericho City Drive,,38.908527,-76.857053,,,0,,America/New_York,,,0,
32197,32197,,Jericho City Dr at Brightseat Rd.,,38.909793,-76.854085,,,0,,America/New_York,,,0,
32198,32198,,Brightseat Rd & Landsdowne Village Apartments,,38.91276,-76.853205,,,0,,America/New_York,,,0,
32199,32199,,8210 Sheriff Rd,,38.9143060532638,-76.8640358719,,,0,,America/New_York,,,0,
32200,32200,,8100 Sheriff Rd,,38.91396309,-76.86612574,,,0,,America/New_York,,,0,
32201,32201,,Prince Georges Sports Center at Main Entrance,,38.911881211586,-76.8676260863814,,,0,,America/New_York,,,0,
32202,32202,,Opp. 8030 Sheriff Rd,,38.913714,-76.866294,,,0,,America/New_York,,,0,
32203,32203,,Opp. 8214 Sheriff Rd,,38.914169,-76.863842,,,0,,America/New_York,,,0,
32204,32204,,Brightseat Rd at MD 202,,38.916171,-76.860197,,,0,,America/New_York,,,0,
32205,32205,,Brightseat Rd at MD 202,,38.916991,-76.860476,,,0,,America/New_York,,,0,
32210,32210,,Brightseat Rd & Landsdowne Village Apartments,,38.912875,-76.853422,,,0,,America/New_York,,,0,
32211,32211,,Jericho City Dr at Brightseat Rd.,,38.909939,-76.854115,,,0,,America/New_York,,,0,
32212,32212,,Jericho City Dr at 8500 Jericho City Dr,,38.907863,-76.857113,,,0,,America/New_York,,,0,
32213,32213,,Brightseat Road at Bishop Peebles Drive,,38.9067895292212,-76.85314092977,,,0,,America/New_York,,,0,
32214,32214,,Brightseat Rd at 1000 Jericho City Drive,,38.903147,-76.853391,,,0,,America/New_York,,,0,
32215,32215,,Centre Pointe Office Park,,38.901853,-76.8534,,,0,,America/New_York,,,0,
32216,32216,,Brightseat Rd at Continental Pl,,38.899787,-76.853347,,,0,,America/New_York,,,0,
32217,32217,,414 Brightseat Rd,,38.896003,-76.851735,,,0,,America/New_York,,,0,
32218,32218,,400 Brightseat Rd,,38.894122,-76.851222,,,0,,America/New_York,,,0,
32219,32219,,Brightseat Rd at Glen Valley Dr,,38.891942,-76.852784,,,0,,America/New_York,,,0,
32220,32220,,Central Avenue at Brightseat Road,,38.8906993548877,-76.8546841601258,,,0,,America/New_York,,,0,
32221,32221,,Central Avenue at Norair Avenue,,38.889895,-76.859682,,,0,,America/New_York,,,0,
32222,32222,,Central Avenue at Garrett A. Morgan Boulevard,,38.89001,-76.861757,,,0,,America/New_York,,,0,
32224,32224,,Garrett A. Morgan Blvd at Gibbs Way,,38.895646,-76.865817,,,0,,America/New_York,,,0,
32225,32225,,Garrett A Morgan Blvd at Ridgefield Blvd,,38.898211,-76.865255,,,0,,America/New_York,,,0,
32229,32229,,Garrett A. Morgan Blvd at Opp. Morgan Blvd Station,,38.893427,-76.865717,,,0,,America/New_York,,,0,
32235,32235,,Central Avenue at Cabin Branch Road,,38.887204,-76.893613,,,0,,America/New_York,,,0,
32236,32236,,Central Avenue at Opp. Cindy Lane,,38.8877746482222,-76.8893741040472,,,0,,America/New_York,,,0,
32237,32237,,District Heights Parkway at Addison Road,,38.860857,-76.888065,,,0,,America/New_York,,,0,
32238,32238,,Central Avenue at Daimler Drive,,38.887538,-76.886521,,,0,,America/New_York,,,0,
32239,32239,,District Heights Parkway at Breton Drive,,38.860138,-76.890528,,,0,,America/New_York,,,0,
32240,32240,,District Heights Parkway at Rochelle Avenue,,38.859465,-76.89412,,,0,,America/New_York,,,0,
32241,32241,,Peppermill Drive at Central Avenue,,38.888078,-76.884159,,,0,,America/New_York,,,0,
32242,32242,,Peppermill Drive at Canyon Drive,,38.890228,-76.885456,,,0,,America/New_York,,,0,
32243,32243,,Rochelle Avenue at Elmhurst Street,,38.858096,-76.895371,,,0,,America/New_York,,,0,
32244,32244,,Council Drive at Foster Street,,38.857094,-76.895405,,,0,,America/New_York,,,0,
32245,32245,,Peppermill Drive at Opp. Pepper Street,,38.892832,-76.886185,,,0,,America/New_York,,,0,
32246,32246,,Council Drive at Gateway Boulevard,,38.856159,-76.894913,,,0,,America/New_York,,,0,
32247,32247,,Peppermill Drive at Hastings Drive,,38.894574,-76.886447,,,0,,America/New_York,,,0,
32248,32248,,Council Drive at Kipling Parkway,,38.8543953805496,-76.8939988384463,,,0,,America/New_York,,,0,
32249,32249,,Hastings Drive at Valley Park Road,,38.894676,-76.882445,,,0,,America/New_York,,,0,
32250,32250,,Hastings Drive at Hill Road,,38.89631,-76.880885,,,0,,America/New_York,,,0,
32251,32251,,Kipling Parkway at Marlboro Pike,,38.85346,-76.896668,,,0,,America/New_York,,,0,
32252,32252,,Hill Road at Willow Hill Drive,,38.894764,-76.879011,,,0,,America/New_York,,,0,
32253,32253,,Old Silver Hill Road at Parkland Drive,,38.855225,-76.901706,,,0,,America/New_York,,,0,
32254,32254,,Hill Road at Opp. Mountain View Way,,38.891673,-76.878095,,,0,,America/New_York,,,0,
32255,32255,,Old Silver Hill Road at Parkland Court,,38.854789,-76.903147,,,0,,America/New_York,,,0,
32256,32256,,Old Silver Hill Road at Opp. Library Entrance,,38.853756,-76.9066,,,0,,America/New_York,,,0,
32257,32257,,Silver Hill Road at Pennsylvania Avenue,,38.85380147,-76.90902192,,,0,,America/New_York,,,0,
32258,32258,,Pennsylvania Avenue at Penn Crossing Drive,,38.85645,-76.913925,,,0,,America/New_York,,,0,
32259,32259,,Possum Court at Walker Mill Drive,,38.885529,-76.868231,,,0,,America/New_York,,,0,
32260,32260,,Brooks Drive at Pennsylvania Avenue,,38.861532178001,-76.9174414309334,,,0,,America/New_York,,,0,
32261,32261,,Walker Mill Drive at Shady Glen Drive,,38.887484,-76.876401,,,0,,America/New_York,,,0,
32262,32262,,Brooks Drive at Marlboro Pike,,38.8643548066215,-76.9162999068503,,,0,,America/New_York,,,0,
32263,32263,,Hill Road at Mountain View Way,,38.891627,-76.877881,,,0,,America/New_York,,,0,
32264,32264,,Brooks Drive at Ridley Street,,38.8645053453889,-76.9166381171533,,,0,,America/New_York,,,0,
32265,32265,,Willow Hill Drive at Hill Road,,38.8949522852421,-76.8784583499529,,,0,,America/New_York,,,0,
32266,32266,,Walker Mill Road at Marlboro Pike,,38.86446,-76.9139,,,0,,America/New_York,,,0,
32267,32267,,Willow Hill Drive at Nalley Road,,38.8955445249184,-76.8769855703443,,,0,,America/New_York,,,0,
32268,32268,,Nalley Road at Opp. Crane Place,,38.898133,-76.876718,,,0,,America/New_York,,,0,
32269,32269,,Walker Mill Road at Tanow Place,,38.8646997593922,-76.9110756921947,,,0,,America/New_York,,,0,
32270,32270,,Nalley Road at Opp. Green Willow Court,,38.899481,-76.874585,,,0,,America/New_York,,,0,
32271,32271,,Walker Mill Road at Weber Drive,,38.86505,-76.908396,,,0,,America/New_York,,,0,
32272,32272,,Nalley Road at East Nalley Road,,38.8999519712378,-76.8720933623585,,,0,,America/New_York,,,0,
32273,32273,,Rollins Avenue at Rollins Lane,,38.866173,-76.907927,,,0,,America/New_York,,,0,
32274,32274,,Nalley Road at Kaplan Court,,38.899421,-76.872379,,,0,,America/New_York,,,0,
32275,32275,,Rollins Avenue at 1506 Rollins Avenue,,38.8682706,-76.9053906,,,0,,America/New_York,,,0,
32276,32276,,Nalley Road at Michele Drive,,38.903169,-76.873444,,,0,,America/New_York,,,0,
32277,32277,,Rollins Avenue at Upcot Court,,38.871681,-76.902886,,,0,,America/New_York,,,0,
32278,32278,,Nalley Road at Capital View Drive,,38.904907,-76.874652,,,0,,America/New_York,,,0,
32279,32279,,Rollins Avenue at Modupeola Way,,38.875432,-76.901122,,,0,,America/New_York,,,0,
32280,32280,,Nalley Road at Nalley Terrace,,38.9073512247327,-76.8772701924639,,,0,,America/New_York,,,0,
32281,32281,,Rollins Avenue at District Avenue,,38.877511,-76.901583,,,0,,America/New_York,,,0,
32282,32282,,Belle Haven Drive at Nalley Road,,38.907674,-76.879219,,,0,,America/New_York,,,0,
32283,32283,,Rollins Avenue at Hanlon Street,,38.881948,-76.902651,,,0,,America/New_York,,,0,
32284,32284,,Belle Haven Drive at Belle Haven Court,,38.909126,-76.879496,,,0,,America/New_York,,,0,
32285,32285,,Old Central Avenue at Rollins Avenue,,38.8860515404805,-76.9034297663084,,,0,,America/New_York,,,0,
32286,32286,,Belle Haven Drive at Village Green Drive,,38.910267,-76.879888,,,0,,America/New_York,,,0,
32287,32287,,East Capitol Street at Yost Place,,38.8871193508162,-76.9023672179939,,,0,,America/New_York,,,0,
32288,32288,,East Capitol Street at Maryland Park Drive,,38.8880340049583,-76.906728675006,,,0,,America/New_York,,,0,
32289,32289,,Village Green Drive at Sheriff Road,,38.9121225876749,-76.8790371951395,,,0,,America/New_York,,,0,
32290,32290,,Central Ave & Maryland Park Dr,,38.885962,-76.904985,,,0,,America/New_York,,,0,
32291,32291,,Sheriff Road at Opp. Dutch Village Drive,,38.912686,-76.877542,,,0,,America/New_York,,,0,
32292,32292,,Central Ave & Vale Pl,,38.885608,-76.907287,,,0,,America/New_York,,,0,
32293,32293,,Central Ave & Tunic Ave,,38.885374,-76.908945,,,0,,America/New_York,,,0,
32294,32294,,Sheriff Road at Harvey Drive,,38.913363,-76.868208,,,0,,America/New_York,,,0,
32295,32295,,Central Ave & Quire Ave,,38.884928,-76.912055,,,0,,America/New_York,,,0,
32296,32296,,Sheriff Road at Eaton Square Apartments,,38.912978,-76.871461,,,0,,America/New_York,,,0,
32297,32297,,Brooke Rd at Highmount Ln,,38.8798,-76.912839,,,0,,America/New_York,,,0,
32299,32299,,Sheriff Road at 1700 Dutch Village Drive,,38.912886,-76.877425,,,0,,America/New_York,,,0,
32300,32300,,Brooke Rd at Highview Pl,,38.877638,-76.913653,,,0,,America/New_York,,,0,
32302,32302,,Sheriff Road at 1700 Village Green Drive,,38.91292539,-76.8795661,,,0,,America/New_York,,,0,
32303,32303,,Sheriff Road at Belle Haven Drive,,38.912937,-76.881173,,,0,,America/New_York,,,0,
32304,32304,,Sheriff Road at Willow Wood Court,,38.910961,-76.888769,,,0,,America/New_York,,,0,
32305,32305,,Sheriff Road at M.L.King Jr. Highway (Md. Rte. 704),,38.909536,-76.892953,,,0,,America/New_York,,,0,
32306,32306,,Sheriff Road at Countrywood Court,,38.912631,-76.885664,,,0,,America/New_York,,,0,
32307,32307,,Sheriff Road at Giant Food Landover Distr. Center,,38.908433,-76.897978,,,0,,America/New_York,,,0,
32308,32308,,Harry S. Truman Drive at Largo Hospital,,38.90187013,-76.84541865,,,0,,America/New_York,,,0,
32309,32309,,Capitol Heights Blvd at Brooke Rd,,38.881401,-76.914412,,,0,,America/New_York,,,0,
32310,32310,,Capitol Heights Blvd at 734 Capitol Heights Blvd,,38.87790501,-76.91608508,,,0,,America/New_York,,,0,
32312,32312,,Capitol Heights Blvd at Opp. Ute Way,,38.876116,-76.91702,,,0,,America/New_York,,,0,
32314,32314,,Capitol Heights Blvd at Gunther St,,38.873267,-76.91851,,,0,,America/New_York,,,0,
32316,32316,,Capitol Heights Blvd at Heath St,,38.871394,-76.919601,,,0,,America/New_York,,,0,
32319,32319,,Marlboro Pike at Opus Ave,,38.870172,-76.920752,,,0,,America/New_York,,,0,
32320,32320,,Indian Head Highway Service Road at Wilson Towers Apartments,,38.78273467,-76.99825902,,,0,,America/New_York,,,0,
32321,32321,,Marlboro Pike at Larchmont Ave,,38.871377,-76.923756,,,0,,America/New_York,,,0,
32322,32322,,Marlboro Pike at Jansen Ave,,38.871869,-76.924537,,,0,,America/New_York,,,0,
32323,32323,,Marlboro Pike at Glacier Ave,,38.872428,-76.926453,,,0,,America/New_York,,,0,
32325,32325,,Benning Rd at Drum Ave,,38.87367,-76.929235,,,0,,America/New_York,,,0,
32326,32326,,Cabin Branch Drive at Whole Foods Entrance,,38.9115777664707,-76.9045366610106,,,0,,America/New_York,,,0,
32327,32327,,Benning Rd at Highland Ridge Apts,,38.875172,-76.930375,,,0,,America/New_York,,,0,
32328,32328,,Cabin Branch Drive at Opp. Whole Foods Entrance,,38.911444,-76.90465,,,0,,America/New_York,,,0,
32330,32330,,Southern Ave at Gunther St,,38.87802,-76.928334,,,0,,America/New_York,,,0,
32331,32331,,Southern Ave at Opp. C St,,38.883783,-76.920953,,,0,,America/New_York,,,0,
32333,32333,,Southern Ave Opp. B St SE,,38.884961,-76.919414,,,0,,America/New_York,,,0,
32335,32335,,Central Ave & Balboa Ave,,38.885142,-76.916663,,,0,,America/New_York,,,0,
32336,32336,,Capitol Heights Blvd at Emmet St,,38.887168,-76.913559,,,0,,America/New_York,,,0,
32338,32338,,Capitol Heights Blvd at Bayou Ave,,38.887198,-76.913754,,,0,,America/New_York,,,0,
32340,32340,,Central Ave & Bayou Ave,,38.885266,-76.916584,,,0,,America/New_York,,,0,
32343,32343,,Southern Ave at B St SE,,38.885272,-76.919253,,,0,,America/New_York,,,0,
32344,32344,,Southern Ave at C St,,38.883868,-76.921065,,,0,,America/New_York,,,0,
32346,32346,,Southern Ave at H St,,38.878082,-76.928493,,,0,,America/New_York,,,0,
32347,32347,,Benning Rd at Highland Ridge Apts,,38.875409,-76.930399,,,0,,America/New_York,,,0,
32348,32348,,Sheriff Road at Opp. Giant Food Landover Distr. Center,,38.908156,-76.898517,,,0,,America/New_York,,,0,
32349,32349,,Benning Rd at Opp. Drum Ave,,38.87386696,-76.92921445,,,0,,America/New_York,,,0,
32350,32350,,Sheriff Road at M.L.King Jr. Highway (Md. Rte. 704),,38.9089689584777,-76.8945766502667,,,0,,America/New_York,,,0,
32351,32351,,Marlboro Pike at Glacier Ave,,38.872615,-76.926679,,,0,,America/New_York,,,0,
32352,32352,,Sheriff Road at First Baptist Church Of Highland Park,,38.910856,-76.888558,,,0,,America/New_York,,,0,
32353,32353,,Marlboro Pike at Opp. Jansen Ave,,38.872184,-76.924919,,,0,,America/New_York,,,0,
32354,32354,,Sheriff Road at Opp. Belle Haven Drive,,38.912729,-76.881006,,,0,,America/New_York,,,0,
32355,32355,,Marlboro Pike at Larchmont Ave,,38.870823,-76.92261,,,0,,America/New_York,,,0,
32356,32356,,Sheriff Road at Village Green Drive,,38.912708,-76.879136,,,0,,America/New_York,,,0,
32357,32357,,Marlboro Pike at Nova Ave,,38.87057,-76.92249,,,0,,America/New_York,,,0,
32359,32359,,Capitol Heights Blvd at Oakcrest Community Center,,38.871334,-76.919459,,,0,,America/New_York,,,0,
32360,32360,,Capitol Heights Blvd at Gunther St,,38.873459,-76.91853,,,0,,America/New_York,,,0,
32362,32362,,Capitol Heights Blvd at Ute Way,,38.876223,-76.917086,,,0,,America/New_York,,,0,
32363,32363,,Capitol Heights Blvd at 733 Capitol Heights Blvd,,38.87792223,-76.91620108,,,0,,America/New_York,,,0,
32365,32365,,Nova Ave & Doppler St,,38.880361,-76.916683,,,0,,America/New_York,,,0,
32366,32366,,Nova Ave & Central Ave,,38.884716,-76.914398,,,0,,America/New_York,,,0,
32368,32368,,Village Green Drive at Sheriff Road,,38.912096,-76.878898,,,0,,America/New_York,,,0,
32369,32369,,Village Green Drive at Belle Haven Drive,,38.911236,-76.87997,,,0,,America/New_York,,,0,
32370,32370,,Belle Haven Drive at Belle Haven Court,,38.91003,-76.880044,,,0,,America/New_York,,,0,
32371,32371,,Belle Haven Drive at Nalley Road,,38.907671,-76.878997,,,0,,America/New_York,,,0,
32372,32372,,Nalley Road at Nalley Terrace,,38.9075470002386,-76.8772638447832,,,0,,America/New_York,,,0,
32373,32373,,Nalley Road at Opp. Capital View Drive,,38.905028,-76.874476,,,0,,America/New_York,,,0,
32374,32374,,Nalley Road at Opp. Michele Drive,,38.90323988,-76.87330574,,,0,,America/New_York,,,0,
32375,32375,,Nalley Road at Kaplan Court,,38.900959,-76.872511,,,0,,America/New_York,,,0,
32376,32376,,Nalley Road at Opp. East Nalley Road,,38.899948,-76.872224,,,0,,America/New_York,,,0,
32377,32377,,Nalley Road at Green Willow Court,,38.89936,-76.874501,,,0,,America/New_York,,,0,
32378,32378,,Suffolk Ave at Bend St,,38.882705,-76.911001,,,0,,America/New_York,,,0,
32379,32379,,508 Suffolk Ave,,38.883401,-76.910674,,,0,,America/New_York,,,0,
32380,32380,,Nalley Road at Crane Place,,38.898122,-76.876565,,,0,,America/New_York,,,0,
32381,32381,,Suffolk Ave & Central Ave,,38.884942,-76.909883,,,0,,America/New_York,,,0,
32382,32382,,Willow Hill Drive at Stevenson Lane,,38.8953460365194,-76.8771053178067,,,0,,America/New_York,,,0,
32383,32383,,Central Ave & Ventura Ave,,38.885445,-76.907576,,,0,,America/New_York,,,0,
32385,32385,,Central Ave & Xenia Ave,,38.885771,-76.905318,,,0,,America/New_York,,,0,
32389,32389,,East Capitol Street at Maryland Park Drive,,38.888840083414,-76.907860891882,,,0,,America/New_York,,,0,
32394,32394,,Hill Road at Willow Hill Drive,,38.894545,-76.87869,,,0,,America/New_York,,,0,
32395,32395,,Central Avenue at Opp. Hampton Park Boulevard,,38.8902558438186,-76.8559593017241,,,0,,America/New_York,,,0,
32396,32396,,Hastings Drive at Yorknolls Drive,,38.895793,-76.881352,,,0,,America/New_York,,,0,
32397,32397,,Hampton Park Boulevard at Opp. Hampton Mall Drive N.,,38.889470394349,-76.8535352124212,,,0,,America/New_York,,,0,
32398,32398,,Hastings Drive at Valley Park Road,,38.894827,-76.882398,,,0,,America/New_York,,,0,
32399,32399,,Hampton Park Boulevard at East Hampton Drive,,38.883652,-76.85146,,,0,,America/New_York,,,0,
32400,32400,,Hastings Drive at Peppermill Drive,,38.894775,-76.885878,,,0,,America/New_York,,,0,
32401,32401,,Hampton Park Boulevard at Edgeworth Drive,,38.88223,-76.851286,,,0,,America/New_York,,,0,
32402,32402,,Peppermill Drive at Pepper Street,,38.893042,-76.886371,,,0,,America/New_York,,,0,
32403,32403,,Hampton Park Boulevard at Steeplechase Bus Bay Prem. #1101,,38.874119,-76.851128,,,0,,America/New_York,,,0,
32404,32404,,Peppermill Drive at Canyon Drive,,38.890575,-76.885892,,,0,,America/New_York,,,0,
32405,32405,,Hampton Park Boulevard at Alaking Court,,38.870987,-76.850165,,,0,,America/New_York,,,0,
32406,32406,,Peppermill Drive at Central Avenue,,38.88795,-76.884292,,,0,,America/New_York,,,0,
32407,32407,,Central Avenue at Daimler Drive,,38.887809,-76.88684,,,0,,America/New_York,,,0,
32408,32408,,Central Avenue at Cindy Lane,,38.887503,-76.889202,,,0,,America/New_York,,,0,
32409,32409,,Central Avenue at Soper Lane,,38.887502,-76.893756,,,0,,America/New_York,,,0,
32410,32410,,Ritchie-Marlboro Road at Sansbury Road,,38.8673,-76.838883,,,0,,America/New_York,,,0,
32411,32411,,Harry S. Truman Drive at Birdie Lane,,38.870861,-76.828201,,,0,,America/New_York,,,0,
32412,32412,,Rollins Avenue at Hanlon Street,,38.881686,-76.902778,,,0,,America/New_York,,,0,
32413,32413,,Harry S. Truman Drive at Woodlawn Boulevard,,38.874697,-76.826674,,,0,,America/New_York,,,0,
32414,32414,,Harry S. Truman Drive at New Orchard Drive,,38.87581,-76.826603,,,0,,America/New_York,,,0,
32415,32415,,Harry S. Truman Drive at Mount Lubentia Way,,38.878939,-76.828065,,,0,,America/New_York,,,0,
32416,32416,,Harry S. Truman Drive at 600-670 Truman Manor Entrance,,38.882239,-76.830683,,,0,,America/New_York,,,0,
32417,32417,,Harry S. Truman Drive at 442 Harry S. Truman Drive,,38.884399,-76.8332,,,0,,America/New_York,,,0,
32418,32418,,Campus Way South at Harry S. Truman Drive,,38.887747016733,-76.8351243872166,,,0,,America/New_York,,,0,
32419,32419,,Campus Way South at 10053 Campus Way South,,38.888358,-76.833211,,,0,,America/New_York,,,0,
32420,32420,,Rollins Avenue at 1405 Rollins Avenue,,38.869609,-76.903995,,,0,,America/New_York,,,0,
32421,32421,,Campus Way South at 10147 Campus Way South,,38.888727,-76.83161,,,0,,America/New_York,,,0,
32422,32422,,Rollins Avenue at 1515 Rollins Avenue,,38.8682328729135,-76.9057822399453,,,0,,America/New_York,,,0,
32423,32423,,Campus Way South at 10233 Campus Way South,,38.888892,-76.830509,,,0,,America/New_York,,,0,
32424,32424,,Rollins Avenue at Rollins Lane,,38.866173,-76.908123,,,0,,America/New_York,,,0,
32426,32426,,Walker Mill Road at Rollins Avenue,,38.8652222368575,-76.9083400739008,,,0,,America/New_York,,,0,
32427,32427,,Walker Mill Road at Brooksquare Drive,,38.86491,-76.91143,,,0,,America/New_York,,,0,
32429,32429,,Walker Mill Road at Marlboro Pike,,38.8645516818112,-76.9140490081721,,,0,,America/New_York,,,0,
32430,32430,,Brooks Drive at Marlboro Pike,,38.8632781195667,-76.9164332975047,,,0,,America/New_York,,,0,
32431,32431,,Campus Way South at Joyceton Drive,,38.8947653255858,-76.8230625239273,,,0,,America/New_York,,,0,
32432,32432,,Brooks Drive at Pennsylvania Avenue,,38.861118645655,-76.9174038800082,,,0,,America/New_York,,,0,
32433,32433,,Campus Way South at Central Avenue,,38.8978003184134,-76.8228780061886,,,0,,America/New_York,,,0,
32435,32435,,Campus Way South at PGCC Entrance,,38.889321,-76.829107,,,0,,America/New_York,,,0,
32436,32436,,Old Silver Hill Road at Parkland Drive,,38.855022,-76.901676,,,0,,America/New_York,,,0,
32437,32437,,Campus Way South at Prince Place,,38.889223,-76.830092,,,0,,America/New_York,,,0,
32438,32438,,Kipling Parkway at Marlboro Pike,,38.853519,-76.896172,,,0,,America/New_York,,,0,
32439,32439,,Campus Way South at Treetop Condo Entrance,,38.888977,-76.831814,,,0,,America/New_York,,,0,
32440,32440,,Kipling Parkway at Council Drive,,38.85423,-76.893987,,,0,,America/New_York,,,0,
32441,32441,,Campus Way South at 10100 Campus Way South,,38.888634,-76.833305,,,0,,America/New_York,,,0,
32442,32442,,Council Drive at Foster Street,,38.856866,-76.895162,,,0,,America/New_York,,,0,
32443,32443,,Council Drive at Elmhurst Street,,38.857719,-76.895606,,,0,,America/New_York,,,0,
32444,32444,,Harry S. Truman Drive at Campus Way South,,38.886957,-76.835808,,,0,,America/New_York,,,0,
32445,32445,,Harry S. Truman Drive at 442 Harry S. Truman Drive,,38.884016,-76.833253,,,0,,America/New_York,,,0,
32446,32446,,Rochelle Avenue at Elmhurst Street,,38.858356,-76.895029,,,0,,America/New_York,,,0,
32447,32447,,District Heights Parkway at Rochelle Avenue,,38.859483,-76.893654,,,0,,America/New_York,,,0,
32448,32448,,District Heights Parkway at Marbury Court,,38.862117,-76.884017,,,0,,America/New_York,,,0,
32459,32459,,Walker Mill Drive at New Mt. Nebo Baptist Church,,38.8874098865879,-76.8765003985295,,,0,,America/New_York,,,0,
32460,32460,,Walker Mill Drive at Solid Rock Full Gospel Baptist Church,,38.886097,-76.872672,,,0,,America/New_York,,,0,
32478,32478,,Sheriff Road at William Paca Elementary School,,38.912622,-76.873108,,,0,,America/New_York,,,0,
32481,32481,,Sheriff Road at Opp. William Paca Elementary School,,38.912808,-76.873011,,,0,,America/New_York,,,0,
32484,32484,,Highview Pl at Hanbury Ct,,38.877226,-76.912922,,,0,,America/New_York,,,0,
32485,32485,,Highview Pl at Sunbury Ct,,38.877868,-76.907936,,,0,,America/New_York,,,0,
32486,32486,,Highview Pl at Onslow Way,,38.877011,-76.909189,,,0,,America/New_York,,,0,
32487,32487,,Highview Pl at Keyworth Ct,,38.876363,-76.910594,,,0,,America/New_York,,,0,
32488,32488,,Highview Pl at Brooke Rd,,38.877653,-76.913806,,,0,,America/New_York,,,0,
32548,32548,,Ritchie Station Court at Bus Stop #1,,38.866386,-76.850358,,,0,,America/New_York,,,0,
32549,32549,,Ritchie Station Court at Bus Stop #2,,38.866575,-76.850058,,,0,,America/New_York,,,0,
32552,32552,,Rollins Avenue at District Avenue,,38.877667,-76.901779,,,0,,America/New_York,,,0,
32553,32553,,Rollins Avenue at Modupeola Way,,38.875488,-76.901265,,,0,,America/New_York,,,0,
32554,32554,,Denise Drive at Banister Way,,38.87387,-76.903138,,,0,,America/New_York,,,0,
32555,32555,,Denise Drive at Epworth Way,,38.875072,-76.904129,,,0,,America/New_York,,,0,
32556,32556,,Denise Dr at Dutton Way,,38.874507,-76.904146,,,0,,America/New_York,,,0,
32557,32557,,Rollins Avenue at Upcot Court,,38.871539,-76.903042,,,0,,America/New_York,,,0,
32566,32566,,Old Silver Hill Road at Library Entrance,,38.853667,-76.906211,,,0,,America/New_York,,,0,
32567,32567,,Old Silver Hill Road at Addison Avenue,,38.854304,-76.904067,,,0,,America/New_York,,,0,
32568,32568,,Old Silver Hill Road at Parkland Court,,38.854641,-76.902977,,,0,,America/New_York,,,0,
32579,32579,,District Heights Parkway at Marbury Drive,,38.862088,-76.88375,,,0,,America/New_York,,,0,
32589,32589,,Ritchie Road at Vineyard Drive,,38.852624,-76.870711,,,0,,America/New_York,,,0,
32592,32592,,3133 Pennsy Dr,,38.932952,-76.887696,,,0,,America/New_York,,,0,
32593,32593,,3300 Pennsy Dr,,38.936378,-76.884417,,,0,,America/New_York,,,0,
32594,32594,,Ritchie Road at Vineyard Drive,,38.852805,-76.870536,,,0,,America/New_York,,,0,
32596,32596,,Pennsy Dr at 75th Ave,,38.935654,-76.882742,,,0,,America/New_York,,,0,
32597,32597,,3300 75th Ave,,38.933032,-76.882945,,,0,,America/New_York,,,0,
32599,32599,,3209 75th Ave,,38.93124511,-76.88437406,,,0,,America/New_York,,,0,
32626,32626,,Pennsy Dr at Landover Metrorail Station Ent.,,38.93216814,-76.88894819,,,0,,America/New_York,,,0,
32630,32630,,Arena Drive/ Medical Center Drive at Capital Center Boulevard,,38.9048126509234,-76.8448917461669,,,0,,America/New_York,,,0,
32632,32632,,Brightseat Road at Jericho Residences,,38.90344246,-76.85381888,,,0,,America/New_York,,,0,
32633,32633,,Arena Drive/ Medical Center Drive at Shoppers Way,,38.905788,-76.84713,,,0,,America/New_York,,,0,
32634,32634,,Garrett A. Morgan Blvd at Morgan Blvd Station (Ent),,38.893254,-76.866046,,,0,,America/New_York,,,0,
32772,32772,,Southern Avenue Metrorail Station at Bus Bay K,,38.8407809112728,-76.9752006175332,,,0,,America/New_York,,,0,
32791,32791,,Southern Avenue Metrorail Station at Bus Bay J,,38.8409423248772,-76.9749927995267,,,0,,America/New_York,,,0,
32830,32830,,Southern Avenue Metrorail Station at Bus Bay L,,38.8406579380248,-76.9753720324826,,,0,,America/New_York,,,0,
32867,32867,,New Carrollton Metrorail Station at Bus Bay K,,38.94866,-76.872238,,,0,,America/New_York,,,0,
32947,32947,,Addison Road Metrorail Station at Bus Bay D,,38.8861863505404,-76.8957624678361,,,0,,America/New_York,,,0,
32957,32957,,Capitol Heights Metrorail Station at Bus Bay B,,38.888991,-76.913364,,,0,,America/New_York,,,0,
33000,33000,,Hospital Drive at Southern Maryland Hospital,,38.748844,-76.877158,,,0,,America/New_York,,,0,
33020,33020,,Allentown Road at Kingston Drive,,38.793615,-76.917417,,,0,,America/New_York,,,0,
33021,33021,,Allentown Road at Westchester Drive,,38.795501,-76.915381,,,0,,America/New_York,,,0,
33022,33022,,Allentown Road at Westchester Court,,38.7968821934596,-76.9144204663466,,,0,,America/New_York,,,0,
33025,33025,,Allentown Road at Allentown Way,,38.801707,-76.908979,,,0,,America/New_York,,,0,
33027,33027,,5827 Allentown Way at Old Branch Avenue,,38.800641,-76.906541,,,0,,America/New_York,,,0,
33060,33060,,Mike Shapiro Drive at Sheila Lane,,38.770422,-76.882109,,,0,,America/New_York,,,0,
33062,33062,,Mike Shapiro Drive at Clinton Manor Entrance,,38.772356,-76.882086,,,0,,America/New_York,,,0,
33089,33089,,Temple Hill Road at Hagan Road,,38.817817,-76.949258,,,0,,America/New_York,,,0,
33130,33130,,Temple Hill Road at Hagan Road,,38.818136,-76.949697,,,0,,America/New_York,,,0,
33219,33219,,Brinkley Road at Temple Hill Road,,38.800665,-76.930397,,,0,,America/New_York,,,0,
33220,33220,,Allentown Way at 5846 Allentown Way,,38.8008969102846,-76.9060652582084,,,0,,America/New_York,,,0,
33222,33222,,Silver Hill Road at Parkway Terrace Drive,,38.843761,-76.929536,,,0,,America/New_York,,,0,
33223,33223,,Silver Hill Road at Randall Road,,38.844775,-76.9282,,,0,,America/New_York,,,0,
33224,33224,,Silver Hill Road at Swann Road,,38.845625,-76.927389,,,0,,America/New_York,,,0,
33225,33225,,Suitland Road at Towne Square Boulevard,,38.849656,-76.926286,,,0,,America/New_York,,,0,
33226,33226,,Suitland Road at Towne Park Road,,38.850428,-76.927921,,,0,,America/New_York,,,0,
33227,33227,,Suitland Road at Opp. Suitland Federal Center Gate 3,,38.851033,-76.929193,,,0,,America/New_York,,,0,
33228,33228,,Suitland Road at Shadyside Avenue,,38.8517667172478,-76.9307493977842,,,0,,America/New_York,,,0,
33229,33229,,Suitland Road at 4410 Suitland Road,,38.8524566158631,-76.9332955106601,,,0,,America/New_York,,,0,
33230,33230,,Suitland Road at Opp. 4211 Suitland Road,,38.854234,-76.938144,,,0,,America/New_York,,,0,
33231,33231,,Capital Crossing Apartments at 3930 Capital Crossing Apartments,,38.8603858075531,-76.9477089823194,,,0,,America/New_York,,,0,
33232,33232,,Whitehall Square Apartments at 4112 Whitehall Square Apartments,,38.85578,-76.938195,,,0,,America/New_York,,,0,
33233,33233,,Whitehall Square Apartments at 4138 Whitehall Square Apartments,,38.857451,-76.938166,,,0,,America/New_York,,,0,
33234,33234,,Whitehall Square Apartments at 4174 Whitehall Squareapartments,,38.85887,-76.93703,,,0,,America/New_York,,,0,
33235,33235,,Whitehall Square Apartments at 4192 Whitehall Square Apartments,,38.860024,-76.935538,,,0,,America/New_York,,,0,
33236,33236,,Whitehall Square Apartments at 4258 Whitehall Square Apartments,,38.861812,-76.934778,,,0,,America/New_York,,,0,
33237,33237,,Whitehall Square Apartments at Community Hall,,38.86001,-76.936028,,,0,,America/New_York,,,0,
33238,33238,,Whitehall Square Apartments at Opp. 4174 Whitehall Square Apartments,,38.859072,-76.936944,,,0,,America/New_York,,,0,
33239,33239,,Whitehall Square Apartments at Opp. 4138 Whitehall Square Apartments,,38.857481,-76.938361,,,0,,America/New_York,,,0,
33240,33240,,Whitehall Square Apartments at 4106 Whitehall Square Apartments,,38.855391,-76.938689,,,0,,America/New_York,,,0,
33241,33241,,Suitland Road at 4211 Suitland Road,,38.853885,-76.937966,,,0,,America/New_York,,,0,
33242,33242,,Suitland Road at Suitland Federal Center Gate 1,,38.8523834904177,-76.9336683271774,,,0,,America/New_York,,,0,
33243,33243,,Suitland Road at Shadyside Avenue,,38.8517604694315,-76.9312299401915,,,0,,America/New_York,,,0,
33244,33244,,Suitland Road at Suitland Federal Center Gate 4,,38.850182,-76.927829,,,0,,America/New_York,,,0,
33245,33245,,Suitland Road at Towne Square Boulevard,,38.849328,-76.926133,,,0,,America/New_York,,,0,
33246,33246,,Silver Hill Road at Suitland Road,,38.848133,-76.925503,,,0,,America/New_York,,,0,
33247,33247,,Silver Hill Road at Swann Road,,38.846875,-76.9267,,,0,,America/New_York,,,0,
33248,33248,,Addison Road Metrorail Station at Bus Bay A,,38.8856716549487,-76.895660369929,,,0,,America/New_York,,,0,
33249,33249,,Metro Drive at Gate 7 Security Booth,,38.845993,-76.930645,,,0,,America/New_York,,,0,
33281,33281,,Oxonhill Road at Harborview Avenue,,38.797647,-77.002773,,,0,,America/New_York,,,0,
33282,33282,,Oxon Hill Road at 6400 Clipper Way,,38.802472,-76.995397,,,0,,America/New_York,,,0,
33283,33283,,Oxon Hill Road at Opp. 6201 Oxon Hill Plaza,,38.803131,-76.991461,,,0,,America/New_York,,,0,
33284,33284,,Oxon Hill Road at 6246 Oxon Hill Road,,38.803522,-76.987401,,,0,,America/New_York,,,0,
33285,33285,,Oxon Hill Road at Opp. Rivertowne Commons,,38.804158,-76.981825,,,0,,America/New_York,,,0,
33286,33286,,Oxon Hill Road at 6130 Oxon Hill Road,,38.8047227593017,-76.9769899811027,,,0,,America/New_York,,,0,
33287,33287,,Saint Barnabas Road at Opp. Barrowfield Road,,38.803592,-76.975825,,,0,,America/New_York,,,0,
33288,33288,,Saint Barnabas Road at Opp. Caryhurst Drive,,38.802023,-76.977864,,,0,,America/New_York,,,0,
33289,33289,,Bock Road at Saint Barnabas Road,,38.7995103443876,-76.9796290796301,,,0,,America/New_York,,,0,
33290,33290,,Bock Road at 6801 Woodside Village Apts.,,38.7977257336166,-76.9780471231608,,,0,,America/New_York,,,0,
33291,33291,,Bock Road at Opp. Belfast Drive,,38.7955669187733,-76.9761357805217,,,0,,America/New_York,,,0,
33292,33292,,Bock Road at Sourwood Lane,,38.7938744455347,-76.9746522459351,,,0,,America/New_York,,,0,
33293,33293,,Bock Road at Technology Recreation Complex,,38.7922081206451,-76.973676025142,,,0,,America/New_York,,,0,
33294,33294,,Bock Road at Wolf Street,,38.7936700618905,-76.9742119460628,,,0,,America/New_York,,,0,
33295,33295,,Bock Road at Belfast Drive,,38.7958323888478,-76.9761223890887,,,0,,America/New_York,,,0,
33296,33296,,Bock Road at 6700 National Christian Academy,,38.7977112431322,-76.9777777913845,,,0,,America/New_York,,,0,
33297,33297,,Bock Road at 6625 Bock Road,,38.799709945115,-76.9795106338074,,,0,,America/New_York,,,0,
33298,33298,,Saint Barnabas Road at Brock Road,,38.8006861369613,-76.9818188791637,,,0,,America/New_York,,,0,
33299,33299,,Saint Barnabas Road at Caryhurst Drive,,38.801847,-76.977807,,,0,,America/New_York,,,0,
33300,33300,,Saint Barnabas Road at Barrowfield Road,,38.803228,-76.976017,,,0,,America/New_York,,,0,
33301,33301,,Saint Barnabas Road at John Hanson Lane,,38.805153,-76.976453,,,0,,America/New_York,,,0,
33302,33302,,Brinkley Road at Saint Ignatius Drive,,38.804842,-76.966814,,,0,,America/New_York,,,0,
33303,33303,,Brinkley Road at Kildare Court,,38.8048448843587,-76.9652955253248,,,0,,America/New_York,,,0,
33305,33305,,Brinkley Road at Farmer Drive,,38.800315,-76.931908,,,0,,America/New_York,,,0,
33307,33307,,Brinkley Road at Opp. Lujean Lane,,38.80077,-76.929826,,,0,,America/New_York,,,0,
33308,33308,,Brinkley Road at Kildare Court,,38.8053750633022,-76.9646316994485,,,0,,America/New_York,,,0,
33309,33309,,Brinkley Road at Saint Ignatius Drive,,38.804859,-76.96776,,,0,,America/New_York,,,0,
33310,33310,,Brinkley Road at John Hanson Lane,,38.80482,-76.974329,,,0,,America/New_York,,,0,
33311,33311,,Oxon Hill Road at 6135 Rivertown Commons,,38.804394,-76.981869,,,0,,America/New_York,,,0,
33312,33312,,Oxon Hill Road at Riverside Plaza Apartments,,38.803742,-76.987394,,,0,,America/New_York,,,0,
33313,33313,,Oxon Hill Road at 6201 Oxon Hill Plaza,,38.803337,-76.991843,,,0,,America/New_York,,,0,
33314,33314,,Oxon Hill Road at Opp. Clipper Way (6383),,38.802811,-76.995078,,,0,,America/New_York,,,0,
33318,33318,,Indian Head Highway at Livingston Road,,38.8162593494153,-76.9985631407765,,,0,,America/New_York,,,0,
33347,33347,,Brandywine Crossing Shopping Center at Safeway Entrance,,38.674904,-76.873093,,,0,,America/New_York,,,0,
33348,33348,,Brandywine Road at Gwynn Park High School,,38.7008860919766,-76.8720903001214,,,0,,America/New_York,,,0,
33349,33349,,Brandywine Road at Lytton Avenue,,38.7175115180723,-76.8900779100217,,,0,,America/New_York,,,0,
33350,33350,,Brandywine Road at Old Maubury Road,,38.7201862474131,-76.8925289044313,,,0,,America/New_York,,,0,
33351,33351,,Brandywine Road at Groveton Drive,,38.7322045513208,-76.8956760440455,,,0,,America/New_York,,,0,
33352,33352,,Brandywine Road at Northgate Parkway,,38.7365726917526,-76.8949844710938,,,0,,America/New_York,,,0,
33353,33353,,Brandywine Road at Opp. Horseshoe Road,,38.7636920861565,-76.8974478637914,,,0,,America/New_York,,,0,
33354,33354,,Greenbelt Metrorail Station at Bus Bay E,,39.0115281290833,-76.9101758193117,,,0,,America/New_York,,,0,
33355,33355,,Brandywine Road at Surratts Road,,38.7557943294289,-76.8949164166568,,,0,,America/New_York,,,0,
33356,33356,,Brandywine Road at Dennison Drive,,38.7464707787368,-76.897407066636,,,0,,America/New_York,,,0,
33357,33357,,Brandywine Road at Clinton Way,,38.7415924548998,-76.8965120801428,,,0,,America/New_York,,,0,
33358,33358,,Brandywine Road at Brooke Jane Drive,,38.7365570514101,-76.8951887693022,,,0,,America/New_York,,,0,
33359,33359,,Brandywine Road at Groveton Drive,,38.731828,-76.895549,,,0,,America/New_York,,,0,
33360,33360,,Brandywine Road at Old Maubury Road,,38.7203431626957,-76.8924993560969,,,0,,America/New_York,,,0,
33361,33361,,Brandywine Road at Lytton Avenue,,38.7174947566049,-76.8903166167263,,,0,,America/New_York,,,0,
33362,33362,,Brandywine Road at Gwynn Park High School,,38.700676,-76.871304,,,0,,America/New_York,,,0,
33364,33364,,Brandywine Crossing Shopping Center at Target,,38.6716394992679,-76.8726512555938,,,0,,America/New_York,,,0,
33367,33367,,Allentown Way at Allentown Road,,38.80122761107,-76.9078423260244,,,0,,America/New_York,,,0,
33419,33419,,Equestrian Center at Lot #4,,38.8121457932585,-76.74840552454,,,0,,America/New_York,,,0,
33425,33425,,Village Drive West at Clairfield Lane,,38.8399929,-76.70919622,,,0,,America/New_York,,,0,
33426,33426,,Village Drive West at Opp. Bishopmill Drive,,38.8364533055718,-76.715054465387,,,0,,America/New_York,,,0,
33427,33427,,Village Drive West at Eyre Drive South,,38.838548922847,-76.7175204627248,,,0,,America/New_York,,,0,
33428,33428,,Village Drive West at Halloway South,,38.8406704729921,-76.7195541044638,,,0,,America/New_York,,,0,
33429,33429,,Village Drive West at Mcconnell Drive,,38.8411225464611,-76.7250863143179,,,0,,America/New_York,,,0,
33430,33430,,Old Crain Highway at Village Drive West,,38.840436,-76.727083,,,0,,America/New_York,,,0,
33431,33431,,Old Crain Highway at 3807 Old Crain Highway,,38.836194,-76.726754,,,0,,America/New_York,,,0,
33432,33432,,Marlboro Pike at US Route 301,,38.8240448593753,-76.7346392836158,,,0,,America/New_York,,,0,
33433,33433,,Old Marlboro Pike at Peerless Avenue,,38.821808,-76.743067,,,0,,America/New_York,,,0,
33434,33434,,Courthouse at Judges Drive,,38.81477,-76.749703,,,0,,America/New_York,,,0,
33436,33436,,John Rogers Boulevard at Farnsworth Lane,,38.82095,-76.761701,,,0,,America/New_York,,,0,
33437,33437,,John Rogers Boulevard at Colonels Choice,,38.822366,-76.760733,,,0,,America/New_York,,,0,
33438,33438,,John Rogers Boulevard at Governors Grove,,38.8241005828972,-76.7615725366364,,,0,,America/New_York,,,0,
33439,33439,,John Rogers Boulevard at Lords Landing Road,,38.8259575159206,-76.765108051347,,,0,,America/New_York,,,0,
33440,33440,,John Rogers Boulevard at Captain Duval Drive,,38.825759,-76.767262,,,0,,America/New_York,,,0,
33441,33441,,Dille Drive at Brown Station Road,,38.825134,-76.769324,,,0,,America/New_York,,,0,
33442,33442,,Dille Drive at DWI Facility,,38.823205,-76.772083,,,0,,America/New_York,,,0,
33443,33443,,Dille Drive at Brown Station Road,,38.8250417684635,-76.7692149728504,,,0,,America/New_York,,,0,
33444,33444,,Lords Landing Road at Brown Station Road,,38.829107,-76.770033,,,0,,America/New_York,,,0,
33445,33445,,Lords Landing Road at Lord Sterling Place,,38.83008,-76.767701,,,0,,America/New_York,,,0,
33446,33446,,Lords Landing Road at Lord Fairfax Place,,38.828768,-76.766078,,,0,,America/New_York,,,0,
33447,33447,,Lords Landing Road at John Rogers Boulevard,,38.826211,-76.764859,,,0,,America/New_York,,,0,
33448,33448,,John Rogers Boulevard at Ascott Drive,,38.823967,-76.761817,,,0,,America/New_York,,,0,
33449,33449,,John Rogers Boulevard at Courtland Lane,,38.82238,-76.761025,,,0,,America/New_York,,,0,
33450,33450,,College Park Metrorail Station at Bus Bay B,,38.978181,-76.927441,,,0,,America/New_York,,,0,
33450TEMP,33450TEMP,,College Park (Temporary),,38.9786202331427,-76.928890109328,,,0,,America/New_York,,,0,
33452,33452,,Old Marlboro Pike at Peerless Avenue,,38.822044,-76.74263,,,0,,America/New_York,,,0,
33453,33453,,Marlboro Pike at US Route 301,,38.8238521449398,-76.7343831974898,,,0,,America/New_York,,,0,
33454,33454,,Old Crain Highway at Opp. 3807 Old Crain Highway,,38.836394,-76.726631,,,0,,America/New_York,,,0,
33455,33455,,Old Crain Highway at Village Drive West,,38.840599,-76.726951,,,0,,America/New_York,,,0,
33456,33456,,Village Drive West at Mcconnell Drive,,38.840974,-76.724899,,,0,,America/New_York,,,0,
33457,33457,,Village Drive West at Halloway South,,38.840611,-76.71989,,,0,,America/New_York,,,0,
33458,33458,,Village Drive West at Halloway North,,38.8383916863606,-76.7177054543616,,,0,,America/New_York,,,0,
33459,33459,,Village Drive West at Bishopmill Drive,,38.8362787468098,-76.7151177024381,,,0,,America/New_York,,,0,
33461,33461,,Brandywine Road at Cork Tree Way,,38.7429539093386,-76.896671725029,,,0,,America/New_York,,,0,
33462,33462,,Brandywine Road at Killarney Street,,38.7467935171688,-76.8971309327959,,,0,,America/New_York,,,0,
33463,33463,,Brandywine Road at Surratts Road,,38.7562021564212,-76.8951149170802,,,0,,America/New_York,,,0,
33464,33464,,Brandywine Road at Clinton Manor Drive,,38.7604329284463,-76.8959991588481,,,0,,America/New_York,,,0,
33465,33465,,Brandywine Road at Horseshoe Road,,38.7637609274561,-76.8973248333179,,,0,,America/New_York,,,0,
33894,33894,,Greenbelt Metrorail Station at Bus Bay A,,39.0121205228799,-76.9096483743229,,,0,,America/New_York,,,0,
33911,33911,,New Carrollton Metrorail Station at Bus Bay F,,38.947001,-76.872569,,,0,,America/New_York,,,0,
33945,33945,,Largo Town Center Metrorail Station at Bus Bay F,,38.9000927818605,-76.8463863700978,,,0,,America/New_York,,,0,
33946,33946,,Largo Town Center Metrorail Station at Bus Bay E,,38.9002723336475,-76.84615569843,,,0,,America/New_York,,,0,
33948,33948,,Cheverly Metrorail Station at Bus Bay D,,38.915558,-76.915891,,,0,,America/New_York,,,0,
34071,34071,,Naylor Road Metrorail Station at Bus Bay H,,38.849839,-76.956431,,,0,,America/New_York,,,0,
34174,34174,,Branch Avenue Metrorail Station at Bus Bay J,,38.826858,-76.91255,,,0,,America/New_York,,,0,
34185,34185,,Landover Metrorail Station Bus Bay A,,38.933657,-76.89052,,,0,,America/New_York,,,0,
34193,34193,,Morgan Blvd Metrorail Station at Bus Bay C,,38.892975,-76.867385,,,0,,America/New_York,,,0,
34194,34194,,Morgan Blvd Metrorail Station at Bus Bay D,,38.893157,-76.86756,,,0,,America/New_York,,,0,
34195,34195,,Morgan Blvd Station Bus Bay E,,38.892961,-76.867975,,,0,,America/New_York,,,0,
34204,34204,,Belcrest Road at PG Plaza Entrance,,38.96819093,-76.9543079,,,0,,America/New_York,,,0,
34219,34219,,Suitland Metrorail Station at Bus Bay D,,38.84467,-76.93251,,,0,,America/New_York,,,0,
34225,34225,,West Hyattsville Metrorail Station at Bus Bay B,,38.9564304120122,-76.9681967892521,,,0,,America/New_York,,,0,
34226,34226,,West Hyattsville Metrorail Station at Bus Bay C,,38.9563662579349,-76.9683918253337,,,0,,America/New_York,,,0,
37001,37001,,Greenbelt Metro Drive at Cherrywood Lane,,39.011302680443,-76.9043693284548,,,0,,America/New_York,,,0,
37002,37002,,Greenbelt Road at Greenway Center Entrance,,38.9939229814908,-76.8775282487719,,,0,,America/New_York,,,0,
37003,37003,,Hanover Parkway at Greenway Center Drive,,38.991425,-76.876642,,,0,,America/New_York,,,0,
37004,37004,,Hanover Parkway at Hanover Drive,,38.9897638947872,-76.8783066842273,,,0,,America/New_York,,,0,
37005,37005,,Hamilton Street at Opp. 37th Avenue,,38.9537227982614,-76.9564683300657,,,0,,America/New_York,,,0,
37006,37006,,Greenbelt Metro Drive at Cherrywood Lane,,39.011423,-76.904308,,,0,,America/New_York,,,0,
37007,37007,,Hamilton Street at 31st Avenue,,38.9559561745603,-76.9637305379606,,,0,,America/New_York,,,0,
37008,37008,,Hamilton Street at 31st Avenue (Inbound),,38.9561926748079,-76.9632650995674,,,0,,America/New_York,,,0,
37009,37009,,Rhode Island Avenue at Opp. County Service Building,,38.950859,-76.941222,,,0,,America/New_York,,,0,
37010,37010,,Rhode Island Avenue at 37th Street,,38.93761,-76.958159,,,0,,America/New_York,,,0,
37011,37011,,Rhode Island Avenue at 38th Street,,38.93925,-76.955134,,,0,,America/New_York,,,0,
37012,37012,,Hamilton Street at 35th Avenue,,38.9550311565292,-76.9609371831383,,,0,,America/New_York,,,0,
37013,37013,,38th Street at Windom Road,,38.947268,-76.956773,,,0,,America/New_York,,,0,
37014,37014,,38th Street at Allison Street,,38.948485,-76.956412,,,0,,America/New_York,,,0,
37015,37015,,38th Street at Opp. Gaines Alley,,38.949902,-76.956041,,,0,,America/New_York,,,0,
37016,37016,,38th Street at Hamilton Street,,38.952923,-76.954827,,,0,,America/New_York,,,0,
37017,37017,,Hamilton Street at 38th Avenue,,38.9533592633465,-76.9552691021389,,,0,,America/New_York,,,0,
37018,37018,,Hamilton Street at 37th Avenue,,38.9538521474652,-76.9563799984347,,,0,,America/New_York,,,0,
37019,37019,,Hamilton Street at 36th Avenue,,38.9544381100709,-76.9584213617912,,,0,,America/New_York,,,0,
37020,37020,,Hamilton Street at 35th Avenue,,38.9551122875053,-76.9604548992591,,,0,,America/New_York,,,0,
37021,37021,,Queensbury Road at Opp. 39th Place,,38.96395,-76.950073,,,0,,America/New_York,,,0,
37024,37024,,East-West Highway at Toledo Terrace,,38.967223,-76.963065,,,0,,America/New_York,,,0,
37025,37025,,Rhode Island Avenue at Bunker Hill Road,,38.939961,-76.954094,,,0,,America/New_York,,,0,
37026,37026,,Queensbury Road at 39th Place,,38.963875,-76.950312,,,0,,America/New_York,,,0,
37027,37027,,Toledo Road at Adelphi Road,,38.970111,-76.949875,,,0,,America/New_York,,,0,
37028,37028,,Queensbury Road at 42nd Place,,38.963619,-76.944944,,,0,,America/New_York,,,0,
37029,37029,,Queensbury Road at 41st Avenue,,38.963778,-76.948239,,,0,,America/New_York,,,0,
37030,37030,,Hanover Parkway at Ora Glen Drive,,38.99134,-76.876517,,,0,,America/New_York,,,0,
37031,37031,,Queensbury Road at 44th Avenue,,38.963303,-76.942031,,,0,,America/New_York,,,0,
37033,37033,,Allentown Road at Brinkley Road,,38.800861,-76.909906,,,0,,America/New_York,,,0,
37034,37034,,Queens Chapel Road at Queensbury Road,,38.964308,-76.950898,,,0,,America/New_York,,,0,
37035,37035,,Toledo Road at Adelphi Road,,38.969956,-76.950002,,,0,,America/New_York,,,0,
37036,37036,,Toledo Road at Belcrest Road,,38.969825,-76.95315,,,0,,America/New_York,,,0,
37037,37037,,John Rogers Boulevard at Old Marlboro Pike,,38.820517,-76.762102,,,0,,America/New_York,,,0,
37038,37038,,Toledo Road at Belcrest Road,,38.969953,-76.953267,,,0,,America/New_York,,,0,
37040,37040,,Columbia Park Road at Opp. Cabin Branch Drive,,38.916969,-76.9063,,,0,,America/New_York,,,0,
37041,37041,,Columbia Park Road at ABC Supply Company,,38.9168793802507,-76.9071711072757,,,0,,America/New_York,,,0,
37042,37042,,Columbia Park Road at 64th Avenue,,38.916448,-76.910566,,,0,,America/New_York,,,0,
37043,37043,,Columbia Park Road at 64th Avenue,,38.916591,-76.910532,,,0,,America/New_York,,,0,
37044,37044,,Columbia Park Road at Opp. ABC Supply Company,,38.9168061198955,-76.9067969757175,,,0,,America/New_York,,,0,
37046,37046,,Marlboro Pike at County Road,,38.8542486880904,-76.8989379107925,,,0,,America/New_York,,,0,
37049,37049,,Elm Street at Governor Oden Bowie Drive,,38.817124,-76.752197,,,0,,America/New_York,,,0,
37050,37050,,Governor Oden Bowie Drive at Rear Of C.A.B.,,38.817532,-76.75205,,,0,,America/New_York,,,0,
37057,37057,,PGCC Perimeter Road at Largo Road (Md. Rte. 202),,38.887682,-76.82144,,,0,,America/New_York,,,0,
37058,37058,,PGCC Perimeter Road at R.I. Bickford Building,,38.88759876,-76.82891908,,,0,,America/New_York,,,0,
37060,37060,,Apollo Drive at Lottsford Road,,38.9056250879268,-76.8406373843564,,,0,,America/New_York,,,0,
37062,37062,,Lottsford Road at Harry S. Truman Drive,,38.8981626644751,-76.8424345718047,,,0,,America/New_York,,,0,
37063,37063,,Lottsford Road at Harry S. Truman Drive,,38.8980997754256,-76.8421145996534,,,0,,America/New_York,,,0,
37065,37065,,Lottsford Road at 8951 Lottsford Road,,38.899621836458,-76.8414569001313,,,0,,America/New_York,,,0,
37066,37066,,Lottsford Road at Zachery Street,,38.901448,-76.8413,,,0,,America/New_York,,,0,
37067,37067,,Lottsford Road at Mccormick Drive,,38.9074752548465,-76.8416624742994,,,0,,America/New_York,,,0,
37069,37069,,Mccormick Drive at 1441 Mccormick Drive,,38.9098444387766,-76.8461409172188,,,0,,America/New_York,,,0,
37071,37071,,9400 Peppercorn Place at Front Entrance,,38.91319,-76.843471,,,0,,America/New_York,,,0,
37072,37072,,Mccormick Drive at Basil Court,,38.9142824186947,-76.8461284741431,,,0,,America/New_York,,,0,
37073,37073,,Brightseat Road at Opp. Maple Ridge Apartments #2,,38.9206001433854,-76.8598045060506,,,0,,America/New_York,,,0,
37074,37074,,Brightseat Road at Opp. Maple Ridge Apartments #1,,38.9213121254871,-76.8593670832239,,,0,,America/New_York,,,0,
37076,37076,,Brightseat Road at Girard Street,,38.92559,-76.858566,,,0,,America/New_York,,,0,
37077,37077,,Brightseat Road at Ardwick-Ardmore Road,,38.935699,-76.857016,,,0,,America/New_York,,,0,
37078,37078,,Brightseat Road at Opp. Evarts Street,,38.922367,-76.858727,,,0,,America/New_York,,,0,
37079,37079,,Brightseat Road at Maple Ridge Apartments #1,,38.9218108818913,-76.8594433675736,,,0,,America/New_York,,,0,
37080,37080,,Brightseat Road at Maple Ridge Apartments #2,,38.9203569621197,-76.8602480653324,,,0,,America/New_York,,,0,
37081,37081,,Mccormick Drive at Basil Court,,38.9142628679515,-76.8459276060867,,,0,,America/New_York,,,0,
37086,37086,,Lottsford Road at Mccormick Drive,,38.9076201450511,-76.8412798121288,,,0,,America/New_York,,,0,
37087,37087,,Lottsford Road at Opp. Zachery Street,,38.9015018578433,-76.8416424061497,,,0,,America/New_York,,,0,
37090,37090,,Equestrian Center at Lot #3,,38.8124895661709,-76.7463095855277,,,0,,America/New_York,,,0,
37091,37091,,Equestrian Center at Lot #1 (Hidden Stop),,38.8125867788719,-76.745332383954,,,0,,America/New_York,,,0,
37098,37098,,Central Avenue at Yeoman Place,,38.8862648927856,-76.902841799688,,,0,,America/New_York,,,0,
37100,37100,,Apollo Drive at Post Office,,38.9033900742929,-76.8373310474502,,,0,,America/New_York,,,0,
37301,37301,,Clinton Fringe Parking Lot at Bus Bay,,38.766071,-76.885142,,,0,,America/New_York,,,0,
37303,37303,,Allentown Road at Temple Hill Road,,38.793477213797,-76.9275549176176,,,0,,America/New_York,,,0,
37304,37304,,Allentown Road at Padgetts Corner,,38.793306,-76.925653,,,0,,America/New_York,,,0,
37305,37305,,Allentown Road at Waldran Avenue,,38.7929032275933,-76.9228503857945,,,0,,America/New_York,,,0,
37306,37306,,Allentown Road at Karen Anne Drive,,38.793141,-76.920054,,,0,,America/New_York,,,0,
37307,37307,,Allentown Road at Coolridge Road,,38.7983437242265,-76.9130029747531,,,0,,America/New_York,,,0,
37308,37308,,Allentown Road at Brinkley Road (Family Services),,38.8004230090482,-76.9108305750782,,,0,,America/New_York,,,0,
37310,37310,,Allentown Road at Brinkley Road,,38.8009792265685,-76.9102004643485,,,0,,America/New_York,,,0,
37311,37311,,Allentown Road at Coolridge Road,,38.7986594480043,-76.9129559953235,,,0,,America/New_York,,,0,
37312,37312,,Allentown Road at Opp. Westchester Court,,38.796973757821,-76.9145874234009,,,0,,America/New_York,,,0,
37314,37314,,Allentown Road at Karen Anne Drive,,38.792949,-76.92005,,,0,,America/New_York,,,0,
37316,37316,,Allentown Road at Padgetts Corner,,38.793472,-76.925639,,,0,,America/New_York,,,0,
37317,37317,,Allentown Road at Temple Hill Road,,38.7936556800709,-76.9270634061856,,,0,,America/New_York,,,0,
37318,37318,,Woodyard Road at Pineview Lane,,38.7666292542853,-76.8896048746292,,,0,,America/New_York,,,0,
37320,37320,,Old Branch Avenue at Allentown Way,,38.801593,-76.905041,,,0,,America/New_York,,,0,
37333,37333,,Brinkley Road at Temple Hill Road,,38.800658,-76.929697,,,0,,America/New_York,,,0,
37335,37335,,Brinkley Road at Opp. Shopton Place,,38.802475,-76.921158,,,0,,America/New_York,,,0,
37336,37336,,Brinkley Road at Bushey Drive,,38.802576,-76.919061,,,0,,America/New_York,,,0,
37337,37337,,Brinkley Road at Glen Oak Drive,,38.802603,-76.916687,,,0,,America/New_York,,,0,
37338,37338,,Brinkley Road at Anderson Drive,,38.801795,-76.913256,,,0,,America/New_York,,,0,
37340,37340,,Allentown Road at Old Branch Avenue,,38.8034407701188,-76.907188110267,,,0,,America/New_York,,,0,
37341,37341,,Old Branch Avenue at PGCC Skilled Trade Center,,38.801803,-76.905017,,,0,,America/New_York,,,0,
37344,37344,,Allentown Road at Waldran Avenue,,38.7927204882038,-76.9227845130758,,,0,,America/New_York,,,0,
37347,37347,,Temple Hill Road at Cardwell Drive,,38.797086,-76.92765,,,0,,America/New_York,,,0,
37350,37350,,Brinkley Road at Trude Street,,38.800436,-76.935454,,,0,,America/New_York,,,0,
37351,37351,,Brinkley Road at Morton Place,,38.800381,-76.937761,,,0,,America/New_York,,,0,
37370,37370,,Brinkley Road at Huntley Square Drive,,38.803162263016,-76.9501830040128,,,0,,America/New_York,,,0,
37371,37371,,Brinkley Road at Cherryfield Road,,38.800609,-76.941742,,,0,,America/New_York,,,0,
37373,37373,,Brinkley Road at Trude Street,,38.800546,-76.935139,,,0,,America/New_York,,,0,
37387,37387,,Southern Avenue at United Medical Center,,38.835781,-76.982751,,,0,,America/New_York,,,0,
37388,37388,,Southern Avenue at 13th Street S.E.,,38.834206,-76.984769,,,0,,America/New_York,,,0,
37389,37389,,Southern Avenue at Wheeler Road,,38.831886,-76.987736,,,0,,America/New_York,,,0,
37390,37390,,Southern Avenue at 9th Street S.E.,,38.830686,-76.989272,,,0,,America/New_York,,,0,
37391,37391,,Southern Avenue at Chesapeake Street S.E.,,38.828706,-76.9918,,,0,,America/New_York,,,0,
37392,37392,,Southern Avenue at Robert Yeldell Towers,,38.826992,-76.994003,,,0,,America/New_York,,,0,
37393,37393,,Southern Avenue at Bonini Road S.E.,,38.825542,-76.995858,,,0,,America/New_York,,,0,
37394,37394,,Southern Avenue at Barnaby Road S.E.,,38.824011,-76.997883,,,0,,America/New_York,,,0,
37395,37395,,Southern Avenue at 6th Street S.E.,,38.822585,-76.999732,,,0,,America/New_York,,,0,
37396,37396,,Indian Head Highway at Southern Avenue,,38.820972,-77.000908,,,0,,America/New_York,,,0,
37397,37397,,Indian Head Highway at Audrey Lane,,38.819122,-77.000082,,,0,,America/New_York,,,0,
37398,37398,,Indian Head Highway at Talbert Street,,38.816595,-76.999045,,,0,,America/New_York,,,0,
37399,37399,,Indian Head Highway at Seneca Drive,,38.814957,-76.998748,,,0,,America/New_York,,,0,
37400,37400,,Indian Head Highway at Tecumseh Drive,,38.807583,-76.998771,,,0,,America/New_York,,,0,
37402,37402,,Monument Avenue at Mgm Casino,,38.79648,-77.008526,,,0,,America/New_York,,,0,
37405,37405,,Brinkley Road at Rosecroft Shopping Center,,38.8040337405167,-76.9530155687336,,,0,,America/New_York,,,0,
37408,37408,,Brinkley Road at Middlefield Road,,38.800195,-76.938052,,,0,,America/New_York,,,0,
37410,37410,,Brinkley Road at Summerhill Road,,38.8019258812846,-76.9244530320687,,,0,,America/New_York,,,0,
37425,37425,,Brinkley Road at Farmer Drive,,38.800181,-76.932212,,,0,,America/New_York,,,0,
37428,37428,,Brinkley Road at Roberts Drive,,38.801058,-76.942347,,,0,,America/New_York,,,0,
37432,37432,,Oxon Hill Road at Oxon Hill Fringe Parking Lot,,38.798656,-77.000686,,,0,,America/New_York,,,0,
37433,37433,,Indian Head Highway at Oxon Farm Road,,38.8074942152011,-76.9983313347641,,,0,,America/New_York,,,0,
37434,37434,,Indian Head Highway at Audrey Lane,,38.81913,-76.999717,,,0,,America/New_York,,,0,
37435,37435,,Indian Head Highway at Southern Avenue,,38.8207064490106,-77.0010304085522,,,0,,America/New_York,,,0,
37436,37436,,Southern Avenue at Opp. 6th Street S.E.,,38.822769,-76.999217,,,0,,America/New_York,,,0,
37437,37437,,Southern Avenue at East Meadow Court S.E.,,38.8241758642023,-76.9973942235802,,,0,,America/New_York,,,0,
37438,37438,,Southern Avenue at Owens Road,,38.825053,-76.996242,,,0,,America/New_York,,,0,
37439,37439,,Southern Avenue at Opp. Robert Yedell Towers,,38.826905,-76.993896,,,0,,America/New_York,,,0,
37440,37440,,Southern Avenue at Opp. Chesapeake Street S.E.,,38.828969,-76.991241,,,0,,America/New_York,,,0,
37441,37441,,Southern Avenue at Opp. 9th Street S.E.,,38.830939,-76.988708,,,0,,America/New_York,,,0,
37442,37442,,Southern Avenue at Opp.Wheeler Road S.E.,,38.83155,-76.987922,,,0,,America/New_York,,,0,
37443,37443,,Southern Avenue at Opp. 13th Street S.E.,,38.833667,-76.9852,,,0,,America/New_York,,,0,
37444,37444,,Southern Avenue at Forest Hills Apartments,,38.835472,-76.982892,,,0,,America/New_York,,,0,
37445,37445,,Stars Entrance Gaylord Hotel at National Harbor Blvd,,38.779546,-77.016687,,,0,,America/New_York,,,0,
37448,37448,,Saint George Boulevard at Waterfront Street,,38.782264,-77.014103,,,0,,America/New_York,,,0,
37456,37456,,Woodyard Road at Opp. Pine View Lane,,38.7668695236164,-76.8895448467005,,,0,,America/New_York,,,0,
37460,37460,,Allentown Road at Dodge Lane,,38.793772,-76.917513,,,0,,America/New_York,,,0,
37777,37777,,Motor Vehicle Administration at North Side Of Mva Building,,38.897228,-76.828657,,,0,,America/New_York,,,0,
37801,37801,,Mercantile Lane at Opp. Technology Way,,38.9073793213696,-76.8373820302055,,,0,,America/New_York,,,0,
37802,37802,,Mercantile Lane at 1400 Mercantile Lane,,38.9087285249605,-76.8374156606932,,,0,,America/New_York,,,0,
37803,37803,,Mercantile Lane at Technology Way (Kaiser Side),,38.9074481772919,-76.8371754842521,,,0,,America/New_York,,,0,
37888,37888,,Apollo Drive at Mercantile Lane,,38.9053132984324,-76.8385386066881,,,0,,America/New_York,,,0,
37889,37889,,Harry S. Truman Drive at Opp.Entr. Truman Manor #600-670,,38.881931,-76.830836,,,0,,America/New_York,,,0,
37890,37890,,District Heights Parkway at Breton Drive,,38.860432,-76.889863,,,0,,America/New_York,,,0,
37891,37891,,Harry S. Truman Drive at Mount Lubentia Way,,38.878594,-76.828211,,,0,,America/New_York,,,0,
37892,37892,,District Heights Parkway at Addison Road,,38.86076,-76.888017,,,0,,America/New_York,,,0,
37893,37893,,Harry S. Truman Drive at New Orchard Drive,,38.875719,-76.82696,,,0,,America/New_York,,,0,
37894,37894,,Harry S. Truman Drive at Woodlawn Boulevard,,38.874018,-76.827167,,,0,,America/New_York,,,0,
37895,37895,,Harry S. Truman Drive at Birdie Lane,,38.87002,-76.828845,,,0,,America/New_York,,,0,
37896,37896,,Ritchie-Marlboro Road at Sansbury Road,,38.86703,-76.837055,,,0,,America/New_York,,,0,
37897,37897,,Kipling Parkway at Marbury Drive,,38.860326,-76.880378,,,0,,America/New_York,,,0,
37898,37898,,Kipling Parkway at Glendora Drive,,38.861057,-76.879487,,,0,,America/New_York,,,0,
37899,37899,,Hampton Park Boulevard at Alaking Court,,38.870803,-76.849897,,,0,,America/New_York,,,0,
37900,37900,,Kipling Parkway at Harwood Road,,38.8613,-76.878338,,,0,,America/New_York,,,0,
37901,37901,,Hampton Park Boulevard at Steeplechase Bus Bay Prem. #1100,,38.873944,-76.850832,,,0,,America/New_York,,,0,
37902,37902,,Kipling Parkway at Wintergreen Avenue,,38.861887,-76.875951,,,0,,America/New_York,,,0,
37903,37903,,Hampton Park Boulevard at Edgeworth Drive,,38.88163,-76.851514,,,0,,America/New_York,,,0,
37904,37904,,Kipling Parkway at Brewton Street,,38.862096,-76.874937,,,0,,America/New_York,,,0,
37905,37905,,Hampton Park Boulevard at East Hampton Drive,,38.883877,-76.851319,,,0,,America/New_York,,,0,
37906,37906,,Kipling Parkway at Ritchie Road,,38.862088,-76.870721,,,0,,America/New_York,,,0,
37907,37907,,Hampton Park Boulevard at Hampton Mall Drive,,38.88835306716,-76.8527438965114,,,0,,America/New_York,,,0,
37912,37912,,3119 75th Ave (Overland Gardens),,38.9296534857912,-76.8849968641946,,,0,,America/New_York,,,0,
37913,37913,,Ritchie Road at Overton Drive,,38.86394,-76.867956,,,0,,America/New_York,,,0,
37914,37914,,75th Ave & Landover Rd,,38.927515,-76.886247,,,0,,America/New_York,,,0,
37915,37915,,Ritchie Road at Napier Drive,,38.864529,-76.866771,,,0,,America/New_York,,,0,
37916,37916,,Dodge Park Rd at Landover Rd,,38.928511,-76.88278,,,0,,America/New_York,,,0,
37917,37917,,Ritchie Road at Dennis Court,,38.866138,-76.86447,,,0,,America/New_York,,,0,
37918,37918,,3417 Dodge Park Rd,,38.931125,-76.880108,,,0,,America/New_York,,,0,
37919,37919,,Ritchie Road at Laura Lane,,38.866968,-76.861402,,,0,,America/New_York,,,0,
37920,37920,,Dodge Park Rd at Hubbard Rd,,38.931791,-76.878277,,,0,,America/New_York,,,0,
37921,37921,,Ritchie Road at Ashville Road,,38.867552,-76.859781,,,0,,America/New_York,,,0,
37922,37922,,Hubbard Rd at Dodge Park Rd,,38.930702,-76.874885,,,0,,America/New_York,,,0,
37923,37923,,Ritchie Road at Forest Park Drive,,38.868809,-76.856679,,,0,,America/New_York,,,0,
37924,37924,,Hubbard Rd at Martin Luther King Jr Hwy,,38.930286,-76.871528,,,0,,America/New_York,,,0,
37925,37925,,Ritchie Road at Walker Mill Road,,38.871293,-76.856016,,,0,,America/New_York,,,0,
37926,37926,,Landover Rd at Firehouse Rd,,38.927497,-76.880892,,,0,,America/New_York,,,0,
37927,37927,,Ritchie Road at Ritchie Drive,,38.87468393,-76.85702398,,,0,,America/New_York,,,0,
37928,37928,,Ritchie Road at 800 Ritchie Road,,38.877763,-76.857937,,,0,,America/New_York,,,0,
37929,37929,,Landover Rd at 75th Ave,,38.926793,-76.886546,,,0,,America/New_York,,,0,
37930,37930,,Edgeworth Drive at Ritchie Road,,38.8802545887823,-76.8578593942038,,,0,,America/New_York,,,0,
37931,37931,,Landover Rd at Pinebrook Rd,,38.927212,-76.890555,,,0,,America/New_York,,,0,
37932,37932,,Dunmore Place at Edgeworth Drive,,38.881231,-76.85564,,,0,,America/New_York,,,0,
37933,37933,,Old Landover Rd at Landover Rd,,38.928703,-76.8918,,,0,,America/New_York,,,0,
37934,37934,,Ashwood Drive at Dunmore Place,,38.882367,-76.857134,,,0,,America/New_York,,,0,
37935,37935,,Old Landover Rd at Landover Rd,,38.928597,-76.892022,,,0,,America/New_York,,,0,
37936,37936,,Ashwood Drive at Ritchie Road,,38.8812268288515,-76.8591820170827,,,0,,America/New_York,,,0,
37937,37937,,Landover Rd at Pinebrook Ave,,38.927195,-76.88976,,,0,,America/New_York,,,0,
37938,37938,,Landover Rd at Kent Town Place,,38.926447,-76.887298,,,0,,America/New_York,,,0,
37939,37939,,Ritchie Road at Truck Way,,38.886664,-76.861236,,,0,,America/New_York,,,0,
37940,37940,,Landover Rd at Fire House Rd,,38.927184,-76.881235,,,0,,America/New_York,,,0,
37941,37941,,Ritchie Road at Central Avenue,,38.888443,-76.86202,,,0,,America/New_York,,,0,
37942,37942,,Landover Rd at Prospect St,,38.927078,-76.877884,,,0,,America/New_York,,,0,
37943,37943,,Ritchie Road at Truck Way,,38.886881,-76.861564,,,0,,America/New_York,,,0,
37944,37944,,Ashwood Drive at Ritchie Road,,38.88203135067,-76.8586623162796,,,0,,America/New_York,,,0,
37945,37945,,Hubbard Rd at Martin Luther King Jr Hwy,,38.930082,-76.871546,,,0,,America/New_York,,,0,
37946,37946,,Ashwood Drive at Dunmore Place,,38.882312,-76.856878,,,0,,America/New_York,,,0,
37947,37947,,Hubbard Rd at Dodge Park Rd,,38.930853,-76.874906,,,0,,America/New_York,,,0,
37948,37948,,Dodge Park Rd at Hubbard Rd,,38.931951,-76.87769,,,0,,America/New_York,,,0,
37949,37949,,Dunmore Place at Edgeworth Drive,,38.88125,-76.855843,,,0,,America/New_York,,,0,
37950,37950,,3404 Dodge Park Rd,,38.931195,-76.880368,,,0,,America/New_York,,,0,
37951,37951,,Edgeworth Drive at Ritchie Road,,38.880367,-76.858043,,,0,,America/New_York,,,0,
37952,37952,,Dodge Park Rd at Landover Rd,,38.928736,-76.882346,,,0,,America/New_York,,,0,
37953,37953,,Ritchie Road at Edgeworth Drive,,38.878525,-76.858534,,,0,,America/New_York,,,0,
37955,37955,,Ritchie Road at Ritchie Drive,,38.874533,-76.857356,,,0,,America/New_York,,,0,
37956,37956,,75th Ave & Landover Rd,,38.927615,-76.886385,,,0,,America/New_York,,,0,
37957,37957,,Ritchie Road at Ritchie-Marlboro Road,,38.871388,-76.856364,,,0,,America/New_York,,,0,
37958,37958,,Overland Gardens Rental Office,,38.9296785779935,-76.8852550861537,,,0,,America/New_York,,,0,
37959,37959,,Ritchie Road at Forest Park Drive,,38.868912,-76.857074,,,0,,America/New_York,,,0,
37960,37960,,3209 75th Ave,,38.931269,-76.884127,,,0,,America/New_York,,,0,
37961,37961,,Ritchie Road at Ashville Road,,38.867937,-76.85938,,,0,,America/New_York,,,0,
37962,37962,,3321 75th Ave,,38.932948,-76.882792,,,0,,America/New_York,,,0,
37963,37963,,Ritchie Road at Alberta Drive,,38.867019,-76.861875,,,0,,America/New_York,,,0,
37964,37964,,Pennsy Dr at Opp. 75th Ave,,38.935817,-76.882797,,,0,,America/New_York,,,0,
37965,37965,,Ritchie Road at Dennis Court,,38.866372,-76.864178,,,0,,America/New_York,,,0,
37966,37966,,Opp 3300 Pennsy Dr,,38.9362383066035,-76.8845452939311,,,0,,America/New_York,,,0,
37967,37967,,Ritchie Road at Napier Drive,,38.864766,-76.86657,,,0,,America/New_York,,,0,
37968,37968,,Opp 3133 Pennsy Dr,,38.933167,-76.887783,,,0,,America/New_York,,,0,
37969,37969,,Ritchie Road at Overton Drive,,38.864039,-76.868045,,,0,,America/New_York,,,0,
37970,37970,,Ritchie Road at Roslyn Avenue,,38.860869,-76.87125,,,0,,America/New_York,,,0,
37971,37971,,Ritchie Road at Mane Lane,,38.857891,-76.871911,,,0,,America/New_York,,,0,
37972,37972,,Ritchie Road at Farr Lane,,38.849109,-76.871485,,,0,,America/New_York,,,0,
37973,37973,,Old Forestville Road at Forestville Road,,38.845745,-76.873932,,,0,,America/New_York,,,0,
37975,37975,,Forestville Road at Parston Drive,,38.846544,-76.87291,,,0,,America/New_York,,,0,
37976,37976,,Ritchie Road at Ritchie Road Spur,,38.848263,-76.871666,,,0,,America/New_York,,,0,
37977,37977,,503 Capitol Heights Blvd,,38.883209,-76.91368,,,0,,America/New_York,,,0,
37979,37979,,Apollo Drive at Arena Drive,,38.9035621460474,-76.8368778513099,,,0,,America/New_York,,,0,
37980,37980,,Ritchie Road at Putnam Lane,,38.857944,-76.871768,,,0,,America/New_York,,,0,
37981,37981,,Ritchie Road at DArcy Road,,38.860586,-76.871203,,,0,,America/New_York,,,0,
37982,37982,,Kipling Parkway at Opp 7805 Ritchie Road,,38.862202,-76.870923,,,0,,America/New_York,,,0,
37983,37983,,Kipling Parkway at Brewton Street,,38.862013,-76.874595,,,0,,America/New_York,,,0,
37984,37984,,Kipling Parkway at Wintergreen Avenue,,38.861697,-76.876259,,,0,,America/New_York,,,0,
37985,37985,,Kipling Parkway at Harwood Road,,38.861481,-76.878005,,,0,,America/New_York,,,0,
37986,37986,,Kipling Parkway at Glendora Drive,,38.860796,-76.879712,,,0,,America/New_York,,,0,
37987,37987,,Ruby Lockhart Boulevard at Campus Way North,,38.923139,-76.846308,,,0,,America/New_York,,,0,
37988,37988,,Campus Way North at Lady Grove Road,,38.9252581772008,-76.8427165088012,,,0,,America/New_York,,,0,
37989,37989,,Kipling Parkway at Marbury Drive,,38.860259,-76.880646,,,0,,America/New_York,,,0,
37990,37990,,Campus Way North at St. Josephs Drive,,38.9237935982411,-76.8376254699708,,,0,,America/New_York,,,0,
37991,37991,,Campus Way North at Byward Boulevard,,38.9211276627248,-76.8347824283817,,,0,,America/New_York,,,0,
37992,37992,,Campus Way North at Hillandale Way,,38.9187932024831,-76.8336853345328,,,0,,America/New_York,,,0,
37993,37993,,Campus Way North at Tulip Tree Drive,,38.9154847315444,-76.8314757513613,,,0,,America/New_York,,,0,
37994,37994,,Campus Way North at Grey Gables Court,,38.9141283223522,-76.8301789059022,,,0,,America/New_York,,,0,
37996,37996,,Lottsford Road at 9617 Lottsford Road,,38.9098469688802,-76.8407787509408,,,0,,America/New_York,,,0,
37997,37997,,Lottsford Road at 9475 Lottsford Road,,38.909852,-76.840393,,,0,,America/New_York,,,0,
37998,37998,,Lottsford Road at Tulip Tree Drive,,38.9156746283793,-76.8311435579056,,,0,,America/New_York,,,0,
37999,37999,,Campus Way North at Collington Campus Drive,,38.9190793691712,-76.8334088155105,,,0,,America/New_York,,,0,
38000,38000,,Campus Way North at Byward Boulevard,,38.9214907991719,-76.8354234480684,,,0,,America/New_York,,,0,
38001,38001,,Campus Way North at St. Josephs Drive,,38.9236561711727,-76.8380372988045,,,0,,America/New_York,,,0,
38002,38002,,Campus Way North at Lady Grove Road,,38.9256880510347,-76.8434433787467,,,0,,America/New_York,,,0,
38003,38003,,Ruby Lockhart Boulevard at Campus Way North,,38.922731,-76.846111,,,0,,America/New_York,,,0,
38004,38004,,Stuart Lane at Surratts Road,,38.751856,-76.882994,,,0,,America/New_York,,,0,
38005,38005,,Stuart Lane at Topaz Court,,38.754061,-76.881993,,,0,,America/New_York,,,0,
38006,38006,,Piscataway Road at Old Branch Avenue,,38.765077,-76.899396,,,0,,America/New_York,,,0,
38007,38007,,Piscataway Road at Absher Lane,,38.764586,-76.902831,,,0,,America/New_York,,,0,
38008,38008,,Piscataway Road at Hardesty Drive,,38.764145,-76.905433,,,0,,America/New_York,,,0,
38009,38009,,Piscataway Road at Pella Place,,38.762042,-76.913102,,,0,,America/New_York,,,0,
38010,38010,,Temple Hill Road at Piscataway Road,,38.756067,-76.919447,,,0,,America/New_York,,,0,
38011,38011,,Temple Hill Road at Badger Avenue,,38.760246,-76.922754,,,0,,America/New_York,,,0,
38012,38012,,Temple Hill Road at Plata Street,,38.767222,-76.927278,,,0,,America/New_York,,,0,
38013,38013,,Temple Hill Road at Southeast Mobile Estates,,38.76985,-76.92686,,,0,,America/New_York,,,0,
38014,38014,,Temple Hill Road at Megan Drive,,38.772591,-76.92596,,,0,,America/New_York,,,0,
38015,38015,,Temple Hill Road at Kirbywood Street,,38.777947,-76.923642,,,0,,America/New_York,,,0,
38016,38016,,Temple Hill Road at Allentown Road,,38.792044,-76.928106,,,0,,America/New_York,,,0,
38017,38017,,Allentown Road at Perrie Lane,,38.806382,-76.903601,,,0,,America/New_York,,,0,
38018,38018,,Allentown Road at Opp. Leon Street,,38.8069003659318,-76.9013698203483,,,0,,America/New_York,,,0,
38019,38019,,Allentown Road at Opp. 5711 Afcu Allentown Road,,38.8085294630499,-76.8979577846906,,,0,,America/New_York,,,0,
38020,38020,,Maxwell Drive at Allentown Road,,38.814376,-76.895174,,,0,,America/New_York,,,0,
38021,38021,,Maxwell Drive at Morris Avenue,,38.815239,-76.896065,,,0,,America/New_York,,,0,
38022,38022,,Auth Road at #6208-6220,,38.815053,-76.899141,,,0,,America/New_York,,,0,
38023,38023,,Auth Road at Carswell Avenue,,38.816171,-76.90038,,,0,,America/New_York,,,0,
38024,38024,,Auth Road at Braymer Avenue,,38.81936,-76.903939,,,0,,America/New_York,,,0,
38025,38025,,Auth Road at 5812 Auth Road,,38.8203568941438,-76.9061420420196,,,0,,America/New_York,,,0,
38026,38026,,Auth Road at Propcopio Drive,,38.821813,-76.908885,,,0,,America/New_York,,,0,
38027,38027,,Auth Road at Gloria Drive,,38.82284,-76.910649,,,0,,America/New_York,,,0,
38028,38028,,Auth Road at Henderson Way,,38.822421,-76.91029,,,0,,America/New_York,,,0,
38029,38029,,Auth Road at Oakland Way,,38.821394221657,-76.9084384483455,,,0,,America/New_York,,,0,
38030,38030,,Auth Road at Dublin Drive,,38.8200756478847,-76.905900774431,,,0,,America/New_York,,,0,
38031,38031,,Auth Road at Clacton Avenue,,38.819503,-76.904468,,,0,,America/New_York,,,0,
38032,38032,,Auth Road at Carswell Terrace,,38.8168478465323,-76.9013312953213,,,0,,America/New_York,,,0,
38033,38033,,Auth Road at Magruder Avenue,,38.814965,-76.899287,,,0,,America/New_York,,,0,
38034,38034,,Morris Avenue at Maxwell Drive,,38.815048,-76.896466,,,0,,America/New_York,,,0,
38035,38035,,Maxwell Drive at Allentown Road,,38.814459,-76.895014,,,0,,America/New_York,,,0,
38036,38036,,Allentown Road at 5711 Afcu Allentown Road,,38.8086538593947,-76.8981153798973,,,0,,America/New_York,,,0,
38037,38037,,Allentown Road at Robin Lane,,38.8069630917206,-76.9022699178468,,,0,,America/New_York,,,0,
38038,38038,,Allentown Road at Perrie Lane,,38.806539,-76.903918,,,0,,America/New_York,,,0,
38039,38039,,Mike Shapiro Drive at Branchwood Towers,,38.771712,-76.881942,,,0,,America/New_York,,,0,
38040,38040,,Temple Hill Road at Allentown Road,,38.791944,-76.928236,,,0,,America/New_York,,,0,
38041,38041,,Temple Hill Road at Kirbywood Street,,38.778,-76.923844,,,0,,America/New_York,,,0,
38042,38042,,Woodyard Road at Canberra Drive,,38.7716956093848,-76.8751714484581,,,0,,America/New_York,,,0,
38043,38043,,Temple Hill Road at Megan Drive,,38.772742,-76.92605,,,0,,America/New_York,,,0,
38044,38044,,Woodyard Road at Opp. Tanglewood Special Ed. Center,,38.7750201892772,-76.870725394899,,,0,,America/New_York,,,0,
38045,38045,,Old Alexandria Ferry Road at Woodyard Road,,38.776727,-76.868273,,,0,,America/New_York,,,0,
38046,38046,,Temple Hill Road at Opp. Southeast Mobile Estates,,38.769872,-76.927037,,,0,,America/New_York,,,0,
38047,38047,,Old Alexandria Ferry Road at Bellefonte Lane,,38.778628,-76.872225,,,0,,America/New_York,,,0,
38048,38048,,Temple Hill Road at Santeetlah Drive,,38.767639,-76.927403,,,0,,America/New_York,,,0,
38049,38049,,Old Alexandria Ferry Road at Poplar Hill Lane,,38.780444,-76.875808,,,0,,America/New_York,,,0,
38050,38050,,Temple Hill Road at 9425 Oahu Street,,38.759858,-76.922656,,,0,,America/New_York,,,0,
38051,38051,,Old Alexandria Ferry Road at Opp. Alexandria Bussiness Park,,38.782452,-76.878882,,,0,,America/New_York,,,0,
38052,38052,,Temple Hill Road at Piscataway Road,,38.756212,-76.919764,,,0,,America/New_York,,,0,
38053,38053,,Old Alexandria Ferry Road at Mike Shapiro Drive,,38.783802,-76.88308,,,0,,America/New_York,,,0,
38054,38054,,Piscataway Road at Pella Place,,38.761903,-76.91305,,,0,,America/New_York,,,0,
38055,38055,,Old Alexandria Ferry Road at Heflin Drive,,38.783941,-76.888174,,,0,,America/New_York,,,0,
38056,38056,,Piscataway Road at Gwynndale Drive,,38.763791,-76.906283,,,0,,America/New_York,,,0,
38057,38057,,Old Alexandria Ferry Road at Malcolm Road,,38.783685,-76.890743,,,0,,America/New_York,,,0,
38058,38058,,Piscataway Road at Absher Lane,,38.764475,-76.902703,,,0,,America/New_York,,,0,
38059,38059,,Old Branch Avenue at Coventry Way,,38.783201,-76.898414,,,0,,America/New_York,,,0,
38060,38060,,Piscataway Road at Brandywine Road,,38.764941,-76.899364,,,0,,America/New_York,,,0,
38061,38061,,Old Branch Avenue at Arbutus Lane,,38.785589,-76.897794,,,0,,America/New_York,,,0,
38062,38062,,Old Branch Avenue at Opp. 6811 Old Branch Avenue,,38.79597152,-76.90057417,,,0,,America/New_York,,,0,
38063,38063,,Stuart Lane at Woodyard Road,,38.7662407327108,-76.8856530496666,,,0,,America/New_York,,,0,
38064,38064,,Allentown Road at Camp Springs Avenue,,38.8030744468274,-76.907890954721,,,0,,America/New_York,,,0,
38065,38065,,Stuart Lane at Topaz Court,,38.754044,-76.882128,,,0,,America/New_York,,,0,
38066,38066,,Brinkley Road at Mark Drive,,38.801938,-76.913465,,,0,,America/New_York,,,0,
38067,38067,,Stuart Lane at Surratts Road,,38.751939,-76.883186,,,0,,America/New_York,,,0,
38068,38068,,Brinkley Road at Larwin Drive,,38.8027383584527,-76.9165632136075,,,0,,America/New_York,,,0,
38069,38069,,Brinkley Road at George Washington Drive,,38.8026766639919,-76.9192863916149,,,0,,America/New_York,,,0,
38070,38070,,Brinkley Road at Temple Hill Road,,38.801213,-76.927454,,,0,,America/New_York,,,0,
38071,38071,,Temple Hill Road at Lakeview Drive,,38.80198102,-76.93027545,,,0,,America/New_York,,,0,
38072,38072,,Temple Hill Road at Cedell Place,,38.804233,-76.932806,,,0,,America/New_York,,,0,
38073,38073,,Temple Hill Road at Weldon Drive,,38.805928,-76.934728,,,0,,America/New_York,,,0,
38074,38074,,Temple Hill Road at Henderson Road,,38.807633,-76.936511,,,0,,America/New_York,,,0,
38075,38075,,Temple Hill Road at Old Temple Hill Road,,38.81002,-76.93717,,,0,,America/New_York,,,0,
38076,38076,,Temple Hill Road at Temple Hill Community Center,,38.813069,-76.938181,,,0,,America/New_York,,,0,
38077,38077,,Temple Hill Road at Lambert Drive,,38.813644,-76.941429,,,0,,America/New_York,,,0,
38078,38078,,Temple Hill Road at Portal Avenue,,38.81425,-76.945178,,,0,,America/New_York,,,0,
38079,38079,,Temple Hill Road at Spring Terrace,,38.81569108,-76.94663747,,,0,,America/New_York,,,0,
38080,38080,,Temple Hill Road at Rickey Avenue,,38.82121,-76.949832,,,0,,America/New_York,,,0,
38081,38081,,Rickey Avenue at 3420 Manor At Victoria Park,,38.821668,-76.946673,,,0,,America/New_York,,,0,
38082,38082,,Temple Hill Road at Saint Barnabas Road,,38.822159,-76.94982,,,0,,America/New_York,,,0,
38083,38083,,Raleigh Road at Saint Barnabas Road,,38.82407,-76.950476,,,0,,America/New_York,,,0,
38084,38084,,Raleigh Road at Culver Street,,38.82623449,-76.95087951,,,0,,America/New_York,,,0,
38085,38085,,Raleigh Road at Olson Street,,38.828245,-76.950857,,,0,,America/New_York,,,0,
38086,38086,,Olson Street at Norcross Street,,38.830323,-76.948477,,,0,,America/New_York,,,0,
38087,38087,,Saint Clair Drive at 28th Avenue,,38.832456,-76.946448,,,0,,America/New_York,,,0,
38088,38088,,28th Avenue at Kenton Place,,38.834392,-76.947569,,,0,,America/New_York,,,0,
38089,38089,,28th Avenue at Keith Street,,38.835422,-76.948465,,,0,,America/New_York,,,0,
38090,38090,,28th Avenue at Keating Street,,38.836761,-76.949415,,,0,,America/New_York,,,0,
38091,38091,,Iverson Street at 28th Avenue,,38.837995089402,-76.9497069912414,,,0,,America/New_York,,,0,
38092,38092,,Iverson Street at Iverson Mall,,38.8384539349202,-76.9486596110588,,,0,,America/New_York,,,0,
38093,38093,,Fairlawn Street at Colebrooke Drive,,38.8415159858515,-76.949539855922,,,0,,America/New_York,,,0,
38094,38094,,28th Parkway at 3526 28th Parkway,,38.841592,-76.954313,,,0,,America/New_York,,,0,
38095,38095,,28th Parkway at Duggan Street,,38.842364,-76.95605,,,0,,America/New_York,,,0,
38096,38096,,28th Parkway at Curtis Drive,,38.844341,-76.957764,,,0,,America/New_York,,,0,
38097,38097,,28th Parkway at 27th Avenue,,38.845876,-76.960428,,,0,,America/New_York,,,0,
38098,38098,,28th Parkway at Afton Street,,38.846342,-76.961378,,,0,,America/New_York,,,0,
38099,38099,,Oxon Run Drive at Oxon Run Court,,38.848235,-76.960803,,,0,,America/New_York,,,0,
38100,38100,,Naylor Road Metrorail Station at Drop Off Only,,38.85001,-76.95574,,,0,,America/New_York,,,0,
38101,38101,,Oxon Run Drive at Oxon Run Court,,38.84827,-76.960991,,,0,,America/New_York,,,0,
38102,38102,,28th Parkway at Afton Street,,38.846236,-76.961451,,,0,,America/New_York,,,0,
38103,38103,,28th Parkway at 27th Avenue,,38.845794,-76.960554,,,0,,America/New_York,,,0,
38104,38104,,28th Parkway at Curtis Drive,,38.844468,-76.957394,,,0,,America/New_York,,,0,
38105,38105,,28th Parkway at Duggan Street,,38.84313,-76.956302,,,0,,America/New_York,,,0,
38106,38106,,28th Parkway at Fairlawn Street,,38.8408426467488,-76.9532195906409,,,0,,America/New_York,,,0,
38107,38107,,Fairlawn Street at Colebrooke Drive,,38.8416288062044,-76.9495934889649,,,0,,America/New_York,,,0,
38108,38108,,Iverson Street at Iverson Mall,,38.838577201929,-76.9490834064499,,,0,,America/New_York,,,0,
38109,38109,,28th Avenue at Keating Street,,38.836532,-76.949057,,,0,,America/New_York,,,0,
38110,38110,,28th Avenue at Keith Street,,38.83568,-76.948435,,,0,,America/New_York,,,0,
38111,38111,,28th Avenue at Kenton Place,,38.834295,-76.947653,,,0,,America/New_York,,,0,
38112,38112,,28th Avenue at Saint Clair Drive,,38.8328177228309,-76.9463721382848,,,0,,America/New_York,,,0,
38113,38113,,Olson Street at Norcross Street,,38.830378,-76.948608,,,0,,America/New_York,,,0,
38114,38114,,Raleigh Road at Olson Street,,38.827786,-76.950969,,,0,,America/New_York,,,0,
38115,38115,,Raleigh Road at Culver Street,,38.826164,-76.951052,,,0,,America/New_York,,,0,
38116,38116,,Raleigh Road at Saint Barnabas Road,,38.823858,-76.950355,,,0,,America/New_York,,,0,
38117,38117,,Temple Hill Road at Saint Barnabas Road,,38.822902,-76.949924,,,0,,America/New_York,,,0,
38118,38118,,Temple Hill Road at Rickey Avenue,,38.821453,-76.949997,,,0,,America/New_York,,,0,
38120,38120,,Temple Hill Road at Spring Terrace,,38.815539,-76.946744,,,0,,America/New_York,,,0,
38121,38121,,Temple Hill Road at Portal Avenue,,38.8141,-76.945061,,,0,,America/New_York,,,0,
38122,38122,,Temple Hill Road at Lambert Drive,,38.813508,-76.941477,,,0,,America/New_York,,,0,
38123,38123,,Temple Hill Road at Opp Temple Hill Community Center,,38.812817,-76.938172,,,0,,America/New_York,,,0,
38124,38124,,Temple Hill Road at Old Temple Hill Road,,38.809781,-76.937275,,,0,,America/New_York,,,0,
38125,38125,,Temple Hill Road at Henderson Road,,38.807369,-76.9365,,,0,,America/New_York,,,0,
38126,38126,,Temple Hill Road at Weldon Drive,,38.805642,-76.934622,,,0,,America/New_York,,,0,
38127,38127,,Temple Hill Road at Old Temple Hill Road,,38.803544,-76.932233,,,0,,America/New_York,,,0,
38128,38128,,Temple Hill Road at Lakeview Drive,,38.801892,-76.930389,,,0,,America/New_York,,,0,
38129,38129,,Old Branch Avenue at 6811 Old Branch Avenue,,38.795928,-76.900714,,,0,,America/New_York,,,0,
38130,38130,,Old Branch Avenue at Kirby Lane,,38.786046,-76.897923,,,0,,America/New_York,,,0,
38131,38131,,Old Branch Avenue at Coventry Way,,38.7833,-76.898569,,,0,,America/New_York,,,0,
38132,38132,,Coventry Way at Old Alexandria Ferry Road,,38.784068,-76.893162,,,0,,America/New_York,,,0,
38133,38133,,Old Alexandria Ferry Road at Malcolm Road,,38.783522,-76.890565,,,0,,America/New_York,,,0,
38134,38134,,Old Alexandria Ferry Road at Heflin Drive,,38.783792,-76.887899,,,0,,America/New_York,,,0,
38135,38135,,Old Alexandria Ferry Road at Mike Shapiro Drive,,38.783708,-76.883401,,,0,,America/New_York,,,0,
38136,38136,,Old Alexandria Ferry Road at Alexandria Ferry Business Park,,38.782368,-76.879091,,,0,,America/New_York,,,0,
38137,38137,,Old Alexandria Ferry Road at Highland Meadows Drive,,38.780519,-76.876352,,,0,,America/New_York,,,0,
38138,38138,,Woody Terrace at Woodyard Road,,38.7665508024747,-76.8866244296951,,,0,,America/New_York,,,0,
38140,38140,,Old Alexandria Ferry Road at 7711 Old Alexandria Ferry Road,,38.778326,-76.872041,,,0,,America/New_York,,,0,
38141,38141,,District Heights Parkway at Marbury Drive,,38.861235,-76.886541,,,0,,America/New_York,,,0,
38142,38142,,Old Alexandria Ferry Road at Woodyard Road,,38.776503,-76.868211,,,0,,America/New_York,,,0,
38143,38143,,Temple Hill Road at Opp. Farmer Drive,,38.7949572647585,-76.9282516350741,,,0,,America/New_York,,,0,
38144,38144,,Woodyard Road at Tanglewood Special Ed. Center,,38.774950069093,-76.8710606460115,,,0,,America/New_York,,,0,
38145,38145,,Fisher Road at Clow Court,,38.805645,-76.957906,,,0,,America/New_York,,,0,
38146,38146,,Woodyard Road at Autumn Way,,38.771856751038,-76.8752915439004,,,0,,America/New_York,,,0,
38147,38147,,Fisher Road at Brinkley Station Drive,,38.8062866871651,-76.9573291867614,,,0,,America/New_York,,,0,
38149,38149,,Fisher Road at Heather Hill Entrance,,38.80787,-76.955925,,,0,,America/New_York,,,0,
38150,38150,,Fisher Road at St. Moritz Drive,,38.809068,-76.953217,,,0,,America/New_York,,,0,
38151,38151,,Fisher Road at Damian Drive,,38.810326,-76.951901,,,0,,America/New_York,,,0,
38152,38152,,Fisher Road at Temple Boulevard,,38.811835,-76.950286,,,0,,America/New_York,,,0,
38153,38153,,Fisher Road at Fisher Drive,,38.8126,-76.948495,,,0,,America/New_York,,,0,
38154,38154,,Fisher Road at Holton Lane,,38.813425,-76.946584,,,0,,America/New_York,,,0,
38155,38155,,District Heights Parkway at Marbury Court W.,,38.861334,-76.886591,,,0,,America/New_York,,,0,
38158,38158,,Saint Barnabas Road at Raleigh Road,,38.823431,-76.950428,,,0,,America/New_York,,,0,
38159,38159,,Saint Barnabas Road at Deer Park Drive,,38.822756,-76.953281,,,0,,America/New_York,,,0,
38160,38160,,Saint Barnabas Road at Hagan Road,,38.822075,-76.955036,,,0,,America/New_York,,,0,
38161,38161,,Saint Barnabas Road at Lime Street,,38.820469,-76.957397,,,0,,America/New_York,,,0,
38162,38162,,Saint Barnabas Road at Frazier Drive,,38.818022,-76.960122,,,0,,America/New_York,,,0,
38163,38163,,Saint Barnabas Road at Frazier Terrace,,38.816986,-76.961446,,,0,,America/New_York,,,0,
38164,38164,,Saint Barnabas Road at Wheeler Road,,38.815961,-76.962583,,,0,,America/New_York,,,0,
38165,38165,,Owens Road at Wheeler Road,,38.817328,-76.965236,,,0,,America/New_York,,,0,
38166,38166,,Owens Road at Woodland Boulevard,,38.817171,-76.967034,,,0,,America/New_York,,,0,
38167,38167,,Owens Road at Norlinda Avenue,,38.817161,-76.970028,,,0,,America/New_York,,,0,
38168,38168,,Owens Road at Martin Drive,,38.81723,-76.976977,,,0,,America/New_York,,,0,
38169,38169,,Owens Road at Owens Road Elementary Entrance,,38.817675,-76.980144,,,0,,America/New_York,,,0,
38170,38170,,Owens Road at Barnaby Run Drive,,38.818292,-76.982386,,,0,,America/New_York,,,0,
38171,38171,,Owens Road at Kennebec Street,,38.82065,-76.988056,,,0,,America/New_York,,,0,
38172,38172,,Owens Road at 1100 Owens Road,,38.822806,-76.989839,,,0,,America/New_York,,,0,
38173,38173,,Owens Road at Iverson Street,,38.823819,-76.990856,,,0,,America/New_York,,,0,
38174,38174,,Owens Road at Irvington Street,,38.824664,-76.993242,,,0,,America/New_York,,,0,
38175,38175,,Owens Road at Irvington Street,,38.824467,-76.993161,,,0,,America/New_York,,,0,
38176,38176,,Owens Road at Iverson Street,,38.823672,-76.990964,,,0,,America/New_York,,,0,
38177,38177,,Owens Road at Opp. 1100 Owens Road,,38.822819,-76.990061,,,0,,America/New_York,,,0,
38178,38178,,Owens Road at Kennebec Street,,38.820546,-76.988208,,,0,,America/New_York,,,0,
38179,38179,,Owens Road at Opp. Barnaby Run Drive,,38.818123,-76.982364,,,0,,America/New_York,,,0,
38180,38180,,Owens Road at Weaver Terrace,,38.817526,-76.980246,,,0,,America/New_York,,,0,
38181,38181,,Owens Road at Opp. Martin Drive,,38.817062,-76.977053,,,0,,America/New_York,,,0,
38182,38182,,Owens Road at Norlinda Avenue,,38.817017,-76.970244,,,0,,America/New_York,,,0,
38183,38183,,Owens Road at Woodland Boulevard,,38.816955,-76.967354,,,0,,America/New_York,,,0,
38184,38184,,Owens Road at Wheeler Road,,38.817175,-76.965233,,,0,,America/New_York,,,0,
38185,38185,,Saint Barnabas Road at Frazier Terrace,,38.816953,-76.961145,,,0,,America/New_York,,,0,
38186,38186,,Saint Barnabas Road at 5210 Saint Barnabas Road,,38.817917,-76.959908,,,0,,America/New_York,,,0,
38187,38187,,Saint Barnabas Road at Kernal Lane,,38.82085,-76.956614,,,0,,America/New_York,,,0,
38188,38188,,Saint Barnabas Road at Hagan Road,,38.82204,-76.954624,,,0,,America/New_York,,,0,
38189,38189,,Saint Barnabas Road at Opp. Gateway Square Apartments,,38.822412,-76.953711,,,0,,America/New_York,,,0,
38190,38190,,Saint Barnabas Road at Temple Hill Road,,38.823133,-76.950811,,,0,,America/New_York,,,0,
38194,38194,,Temple Hill Road at Fisher Road,,38.814392,-76.946103,,,0,,America/New_York,,,0,
38195,38195,,Fisher Road at Fisher Drive,,38.812869,-76.948336,,,0,,America/New_York,,,0,
38196,38196,,Fisher Road at Temple Boulevard,,38.812014,-76.950237,,,0,,America/New_York,,,0,
38197,38197,,Fisher Road at Damian Drive,,38.810635,-76.951738,,,0,,America/New_York,,,0,
38198,38198,,Fisher Road at St. Moritz Drive,,38.809062,-76.953354,,,0,,America/New_York,,,0,
38199,38199,,Fisher Road at Heather Hill Entrance,,38.807991,-76.955976,,,0,,America/New_York,,,0,
38200,38200,,Fisher Road at Brinkley Station Drive,,38.8064691134549,-76.9573548529511,,,0,,America/New_York,,,0,
38201,38201,,Fisher Road at Clow Court,,38.8056835678484,-76.9580606369379,,,0,,America/New_York,,,0,
38277,38277,,Allentown Road at Pleasant Hill Drive,,38.79161,-76.931628,,,0,,America/New_York,,,0,
38278,38278,,Allentown Road at Lanham Lane,,38.789995,-76.936046,,,0,,America/New_York,,,0,
38279,38279,,Allentown Road at Payne Drive,,38.7888586829199,-76.9372786126705,,,0,,America/New_York,,,0,
38280,38280,,Allentown Road at Webster Lane,,38.787403,-76.938572,,,0,,America/New_York,,,0,
38281,38281,,Allentown Road at Burgess Lane,,38.785382,-76.940084,,,0,,America/New_York,,,0,
38282,38282,,Allentown Road at Pats Lane,,38.782704,-76.942829,,,0,,America/New_York,,,0,
38283,38283,,Allentown Road at Vernon Drive,,38.7810827089818,-76.9455905065416,,,0,,America/New_York,,,0,
38284,38284,,Allentown Road at Comet Drive,,38.77947,-76.948117,,,0,,America/New_York,,,0,
38285,38285,,Allentown Road at Prince Georges Drive,,38.7785544768184,-76.9496188128756,,,0,,America/New_York,,,0,
38286,38286,,Allentown Road at Jocelle Court,,38.777185,-76.950947,,,0,,America/New_York,,,0,
38287,38287,,Allentown Road at Arundel Road,,38.776239,-76.952844,,,0,,America/New_York,,,0,
38288,38288,,Tucker Road at Rose Marie Drive,,38.7757724305332,-76.9561846789872,,,0,,America/New_York,,,0,
38289,38289,,Tucker Road at Bock Road,,38.7753149296169,-76.9582485339645,,,0,,America/New_York,,,0,
38290,38290,,Tucker Road at 2810 Tucker Road,,38.7730879927032,-76.9619217451046,,,0,,America/New_York,,,0,
38291,38291,,Tucker Road at Ridgevale Avenue,,38.772386,-76.965161,,,0,,America/New_York,,,0,
38292,38292,,Tucker Road at Plamer Road,,38.774749,-76.972644,,,0,,America/New_York,,,0,
38293,38293,,Palmer Road at Fran Del Drive,,38.770427,-76.980393,,,0,,America/New_York,,,0,
38294,38294,,Palmer Road at Della Lane,,38.769417,-76.982247,,,0,,America/New_York,,,0,
38295,38295,,Palmer Road at Potomac Heights Drive,,38.768753,-76.98345,,,0,,America/New_York,,,0,
38296,38296,,Palmer Road at Old Palmer Road,,38.767747,-76.985896,,,0,,America/New_York,,,0,
38297,38297,,Palmer Road at Devon Hills Drive,,38.767228,-76.988642,,,0,,America/New_York,,,0,
38298,38298,,Palmer Road at Indian Head Highway,,38.766452,-76.992968,,,0,,America/New_York,,,0,
38303,38303,,Palmer Road at Indian Head Highway,,38.766301,-76.992864,,,0,,America/New_York,,,0,
38304,38304,,Palmer Road at Devon Hills Drive,,38.767142,-76.988278,,,0,,America/New_York,,,0,
38305,38305,,Palmer Road at Old Palmer Road,,38.767592,-76.985781,,,0,,America/New_York,,,0,
38306,38306,,Palmer Road at Potomac Heights Drive,,38.768608,-76.983354,,,0,,America/New_York,,,0,
38307,38307,,Palmer Road at Della Lane,,38.769487,-76.981742,,,0,,America/New_York,,,0,
38308,38308,,Palmer Road at Fran Del Drive,,38.77075,-76.979411,,,0,,America/New_York,,,0,
38309,38309,,Tucker Road at Palmer Road,,38.7746,-76.972532,,,0,,America/New_York,,,0,
38310,38310,,Tucker Road at Ridgevale Road,,38.77236,-76.9644,,,0,,America/New_York,,,0,
38311,38311,,Tucker Road at Opp 2809 Tucker Road,,38.773,-76.961822,,,0,,America/New_York,,,0,
38312,38312,,Tucker Road at Bock Road,,38.7752501305575,-76.9578281954564,,,0,,America/New_York,,,0,
38313,38313,,Tucker Road at Rose Marie Drive,,38.775597,-76.956394,,,0,,America/New_York,,,0,
38314,38314,,Tucker Road at Allentown Road,,38.776357,-76.952285,,,0,,America/New_York,,,0,
38315,38315,,Allentown Road at Jocelle Court,,38.777598,-76.950748,,,0,,America/New_York,,,0,
38316,38316,,Allentown Road at Gennene Lane,,38.778068,-76.949954,,,0,,America/New_York,,,0,
38317,38317,,Allentown Road at Comet Lane,,38.7793993038528,-76.9484923553455,,,0,,America/New_York,,,0,
38318,38318,,Allentown Road at Vernon Drive,,38.7812499706939,-76.9456763308166,,,0,,America/New_York,,,0,
38319,38319,,Allentown Road at Pats Lane,,38.782685,-76.943185,,,0,,America/New_York,,,0,
38320,38320,,Allentown Road at Burgess Lane,,38.785022,-76.940214,,,0,,America/New_York,,,0,
38321,38321,,Allentown Road at Webster Lane,,38.787465,-76.938713,,,0,,America/New_York,,,0,
38322,38322,,Allentown Road at Payne Drive,,38.7889660436969,-76.9374473348889,,,0,,America/New_York,,,0,
38323,38323,,Allentown Road at Lanham Lane,,38.790313,-76.935716,,,0,,America/New_York,,,0,
38324,38324,,Allentown Road at Pleasant Hill Drive,,38.791893,-76.931367,,,0,,America/New_York,,,0,
38327,38327,,Lottsford Road at Ruby Lockhart Boulevard,,38.91528338,-76.83667606,,,0,,America/New_York,,,0,
38328,38328,,Lottsford Road at Palmetto Road,,38.9155067,-76.83545033,,,0,,America/New_York,,,0,
38330,38330,,Village Drive West at Clairfield Lane,,38.8400881025159,-76.7089410933423,,,0,,America/New_York,,,0,
38357,38357,,Old Marlboro Pike at John Rogers Boulevard,,38.81951348,-76.7618479,,,0,,America/New_York,,,0,
38367,38367,,Silver Hill Road at Metro Drive,,38.845247,-76.928233,,,0,,America/New_York,,,0,
38370,38370,,Brandywine Road at Clinton Manor Drive,,38.7605939470836,-76.8959264411442,,,0,,America/New_York,,,0,
38373,38373,,Greenbelt Road at Opp. Greenway Center Entrance,,38.99429406,-76.87715269,,,0,,America/New_York,,,0,
38374,38374,,Belcrest Road at 6505 Belcrest Road,,38.967968,-76.953872,,,0,,America/New_York,,,0,
38376,38376,,Rhode Island Avenue at County Service Building,,38.950575,-76.941781,,,0,,America/New_York,,,0,
38380,38380,,Riverdale Road at Taylor Road,,38.961106,-76.929639,,,0,,America/New_York,,,0,
38382,38382,,Columbia Park Road at Cabin Branch Drive,,38.9166565897549,-76.9062145136542,,,0,,America/New_York,,,0,
38384,38384,,Judges Drive at Pratt Street,,38.816727,-76.748652,,,0,,America/New_York,,,0,
38385,38385,,Mccormick Drive at Umuc,,38.9122525903751,-76.8461573949281,,,0,,America/New_York,,,0,
38386,38386,,Old Marlboro Pike at Marlborough Drive,,38.81856,-76.758058,,,0,,America/New_York,,,0,
38388,38388,,Mccormick Drive at Wayne Curry Building,,38.9083709967495,-76.842929339123,,,0,,America/New_York,,,0,
38390,38390,,Mccormick Drive at Opp. Umuc,,38.9122530252229,-76.8463420727709,,,0,,America/New_York,,,0,
38391,38391,,Brightseat Road at Evarts Street,,38.922762,-76.858854,,,0,,America/New_York,,,0,
38393,38393,,Brightseat Road at Arena Drive,,38.9070197933831,-76.852842323432,,,0,,America/New_York,,,0,
38394,38394,,Mccormick Drive at 1400 Mccormick Drive,,38.908924116213,-76.8455659497888,,,0,,America/New_York,,,0,
38397,38397,,Mccormick Drive at Opp. Wayne Curry Building,,38.90823116,-76.84305536,,,0,,America/New_York,,,0,
38399,38399,,Capitol Heights Blvd at Central Ave,,38.88455117,-76.91371157,,,0,,America/New_York,,,0,
38401,38401,,Apollo Drive at Mercantile Lane,,38.9050930996622,-76.8383928168102,,,0,,America/New_York,,,0,
38405,38405,,East Capitol Street at Old Central Avenue,,38.8868459063175,-76.9025036539165,,,0,,America/New_York,,,0,
38406,38406,,Woody Terrace at Woodyard Road,,38.7663958603576,-76.8867608421122,,,0,,America/New_York,,,0,
38408,38408,,Allentown Way at Allentown Road (Aldis),,38.8013735945142,-76.9083847106383,,,0,,America/New_York,,,0,
38410,38410,,Brinkley Road at Shopton Place,,38.8024998032986,-76.9218668636469,,,0,,America/New_York,,,0,
38411,38411,,Brinkley Road at Summerhill Road,,38.8018359754835,-76.9241713750239,,,0,,America/New_York,,,0,
38412,38412,,38th Street at Hamilton Street,,38.952854,-76.954994,,,0,,America/New_York,,,0,
38413,38413,,Brinkley Road at Henson Creek Apartments,,38.803184,-76.949446,,,0,,America/New_York,,,0,
38414,38414,,Brinkley Road at Opp. Rosecroft Shopping Center,,38.8041026762461,-76.9534554823944,,,0,,America/New_York,,,0,
38415,38415,,Brinkley Road at Brinkley Manor W. Entrance,,38.804187,-76.956549,,,0,,America/New_York,,,0,
38417,38417,,Brinkley Road at Brinkley House W. Entrance,,38.804045,-76.956642,,,0,,America/New_York,,,0,
38418,38418,,Temple Hill Road at Cardwell Drive,,38.797414,-76.927734,,,0,,America/New_York,,,0,
38419,38419,,Temple Hill Road at Farmer Drive,,38.795019,-76.928429,,,0,,America/New_York,,,0,
38430,38430,,P. G. Plaza Metrorail Station at Bus Bay H,,38.96544248,-76.95578767,,,0,,America/New_York,,,0,
39006,39006,,Lottsford Road at Grand Boulevard,,38.8997495215968,-76.8418082537069,,,0,,America/New_York,,,0,
39007,39007,,Apollo Drive at Lottsford Road,,38.9057218132012,-76.840165241075,,,0,,America/New_York,,,0,
39008,39008,,Lamont Drive at Larchwood Street,,38.967801,-76.87991,,,0,,America/New_York,,,0,
